[
  {
    "street": "South Mill Street",
    "housenumber": "675",
    "city": "Nashville",
    "postcode": "62263",
    "lat": 38.3389306,
    "lon": -89.3816663
  },
  {
    "street": "Harding Pike",
    "housenumber": "4210",
    "city": "Nashville",
    "postcode": "37205",
    "lat": 36.1320979,
    "lon": -86.8440125
  },
  {
    "street": "West End Avenue",
    "housenumber": "3606",
    "city": "Nashville",
    "postcode": "37205",
    "lat": 36.1353287,
    "lon": -86.8260238
  },
  {
    "street": "South 17th Street",
    "housenumber": "105",
    "city": "Nashville",
    "postcode": "37206",
    "lat": 36.1766043,
    "lon": -86.7387322
  },
  {
    "street": "Due West Avenue",
    "housenumber": "612",
    "city": "Madison",
    "postcode": "37115",
    "lat": 36.2508871,
    "lon": -86.7372198
  },
  {
    "street": "Harding Pike",
    "housenumber": "4210",
    "city": "Nashville",
    "postcode": "37205",
    "lat": 36.1335609,
    "lon": -86.8424582
  },
  {
    "street": "Dominican Drive",
    "housenumber": "801",
    "city": "Nashville",
    "postcode": "37228",
    "lat": 36.1861672,
    "lon": -86.8002768
  },
  {
    "street": "McMurray Drive",
    "housenumber": "477",
    "city": "Nashville",
    "postcode": "37211",
    "lat": 36.0589704,
    "lon": -86.7214621
  },
  {
    "street": "Brush Hill Road",
    "housenumber": "3705",
    "city": "Nashville",
    "postcode": "37216",
    "lat": 36.2218201,
    "lon": -86.7119357
  },
  {
    "street": "Hogan Road",
    "housenumber": "480",
    "city": "Nashville",
    "postcode": "37220",
    "lat": 36.0658554,
    "lon": -86.7544387
  },
  {
    "street": "Stewarts Ferry Pike",
    "housenumber": "605",
    "city": "Nashville",
    "postcode": "37214",
    "lat": 36.1576274,
    "lon": -86.6330499
  },
  {
    "street": "Raywood Lane",
    "housenumber": "5112",
    "city": "Nashville",
    "postcode": "37211",
    "lat": 36.0581157,
    "lon": -86.713609
  },
  {
    "street": "24th Avenue South",
    "housenumber": "2020",
    "city": "Nashville",
    "postcode": "37212",
    "lat": 36.13228,
    "lon": -86.8055549
  },
  {
    "street": "Harding Pike",
    "housenumber": "4210",
    "city": "Nashville",
    "postcode": "37205",
    "lat": 36.1325579,
    "lon": -86.8419444
  },
  {
    "street": "Tusculum Road",
    "housenumber": "41",
    "city": "Antioch",
    "postcode": "37213",
    "lat": 36.0523662,
    "lon": -86.67701
  },
  {
    "street": "Haywood Lane",
    "housenumber": "255",
    "city": "Nashville",
    "postcode": "37211",
    "lat": 36.0699176,
    "lon": -86.7019066
  },
  {
    "street": "East Old Hickory Boulevard",
    "housenumber": "261",
    "city": "Nashville",
    "postcode": "37115",
    "lat": 36.262905,
    "lon": -86.7083672
  },
  {
    "street": "Nolensville Pike",
    "housenumber": "4930",
    "city": "Nashville",
    "postcode": "37211",
    "lat": 36.0614488,
    "lon": -86.7155536
  },
  {
    "street": "Highway 70 South",
    "housenumber": "7401",
    "city": "Nashville",
    "postcode": "37221",
    "lat": 36.0735574,
    "lon": -86.9358889
  },
  {
    "street": "Chapel Avenue",
    "housenumber": "108",
    "city": "Nashville",
    "postcode": "37206",
    "lat": 36.1833893,
    "lon": -86.7355535
  },
  {
    "street": "Broadway",
    "housenumber": "900",
    "city": "Nashville",
    "postcode": "37203",
    "lat": 36.1589497,
    "lon": -86.7833433
  },
  {
    "street": "Hogan Road",
    "housenumber": "451",
    "city": "Nashville",
    "postcode": "37220",
    "lat": 36.0640319,
    "lon": -86.7496753
  },
  {
    "street": "Eastland Avenue",
    "housenumber": "1601",
    "city": "Nashville",
    "postcode": "37206",
    "lat": 36.1836671,
    "lon": -86.7405536
  },
  {
    "street": "Nolensville Pike",
    "housenumber": "2639",
    "city": "Nashville",
    "postcode": "37211",
    "lat": 36.114659,
    "lon": -86.747552
  },
  {
    "street": "Martin Street",
    "housenumber": "1601",
    "city": "Nashville",
    "postcode": "37203",
    "lat": 36.1372797,
    "lon": -86.7702765
  },
  {
    "street": "Humphreys Street",
    "housenumber": "424",
    "city": "Nashville",
    "postcode": "37210",
    "lat": 36.1420667,
    "lon": -86.7663461
  },
  {
    "street": "County Hospital Road",
    "housenumber": "1414",
    "city": "Nashville",
    "postcode": "37218",
    "lat": 36.1774661,
    "lon": -86.845933
  },
  {
    "street": "Pennington Bend Road",
    "housenumber": "2629",
    "city": "Nashville",
    "postcode": "37214",
    "lat": 36.2304477,
    "lon": -86.6904929
  },
  {
    "street": "Thompson Lane",
    "housenumber": "188",
    "city": "Nashville",
    "postcode": "37211",
    "lat": 36.1109939,
    "lon": -86.7397491
  },
  {
    "street": "Hospital Drive",
    "housenumber": "500",
    "city": "Madison",
    "postcode": "37115",
    "lat": 36.2547756,
    "lon": -86.6824968
  },
  {
    "street": "11th Avenue North",
    "housenumber": "2128",
    "city": "Nashville",
    "postcode": "37208",
    "lat": 36.1877719,
    "lon": -86.8067161
  },
  {
    "street": "McGavock Pike",
    "housenumber": "1904",
    "city": "Nashville",
    "postcode": "37216",
    "lat": 36.2104993,
    "lon": -86.712255
  },
  {
    "street": "Woodmont Boulevard",
    "housenumber": "1808",
    "city": "Nashville",
    "postcode": "37221",
    "lat": 36.1141627,
    "lon": -86.8056691
  },
  {
    "street": "Glencliff Road",
    "housenumber": "2901",
    "city": "Nashville",
    "postcode": "37211",
    "lat": 36.1111694,
    "lon": -86.7208312
  },
  {
    "street": "Davidson Drive",
    "housenumber": "1015",
    "city": "Nashville",
    "postcode": "37205",
    "lat": 36.1283188,
    "lon": -86.90442
  },
  {
    "street": "Children's Way",
    "housenumber": "2200",
    "city": "Nashville",
    "postcode": "37232",
    "lat": 36.1393682,
    "lon": -86.8022762
  },
  {
    "street": "Broadmoor Drive",
    "housenumber": "455",
    "city": "Nashville",
    "postcode": "37216",
    "lat": 36.2302112,
    "lon": -86.7386976
  },
  {
    "street": "Nolensville Pike",
    "housenumber": "5106",
    "city": "Nashville",
    "postcode": "37211",
    "lat": 36.0583759,
    "lon": -86.7154018
  },
  {
    "street": "Plus Park Boulevard",
    "housenumber": "285",
    "city": "Nashville",
    "postcode": "37217",
    "lat": 36.1276951,
    "lon": -86.7245187
  },
  {
    "street": "Brewer Drive",
    "housenumber": "503",
    "city": "Nashville",
    "postcode": "37211",
    "lat": 36.0556886,
    "lon": -86.7246189
  },
  {
    "street": "Youngs Lane",
    "housenumber": "800",
    "city": "Nashville",
    "postcode": "37207",
    "lat": 36.2040439,
    "lon": -86.795142
  },
  {
    "street": "Tusculum Road",
    "housenumber": "355",
    "city": "Nashville",
    "postcode": "37211",
    "lat": 36.0586528,
    "lon": -86.7105983
  },
  {
    "street": "Knob Road",
    "housenumber": "5701",
    "city": "Nashville",
    "postcode": "37209",
    "lat": 36.1379154,
    "lon": -86.8623388
  },
  {
    "street": "Youngs Lane",
    "housenumber": "715",
    "city": "Nashville",
    "postcode": "37207",
    "lat": 36.2049924,
    "lon": -86.7961794
  },
  {
    "street": "Nolensville Pike",
    "housenumber": "6105",
    "city": "Nashville",
    "postcode": "37211",
    "lat": 36.0237956,
    "lon": -86.7143486
  },
  {
    "street": "Broadmoor Drive",
    "housenumber": "264",
    "city": "Nashville",
    "postcode": "37216",
    "lat": 36.2305764,
    "lon": -86.7516088
  },
  {
    "street": "Benton Avenue",
    "housenumber": "630",
    "city": "Nashville",
    "postcode": "37204",
    "lat": 36.1322298,
    "lon": -86.7716952
  },
  {
    "street": "Adelicia Street",
    "housenumber": "1917",
    "city": "Nashville",
    "postcode": "37212",
    "lat": 36.1480071,
    "lon": -86.7977703
  },
  {
    "street": "Old Hickory Boulevard",
    "housenumber": "15512",
    "city": "Nashville",
    "postcode": "37211",
    "lat": 36.0402084,
    "lon": -86.7384472
  },
  {
    "street": "Pennington Bend Road",
    "housenumber": "2620",
    "city": "Nashville",
    "postcode": "37214",
    "lat": 36.2283851,
    "lon": -86.6966494
  },
  {
    "street": "Hicks Road",
    "housenumber": "374",
    "city": "Nashville",
    "postcode": "37221",
    "lat": 36.0799346,
    "lon": -86.9281931
  },
  {
    "street": "Brewer Drive",
    "housenumber": "501",
    "city": "Nashville",
    "postcode": "37211",
    "lat": 36.0551821,
    "lon": -86.7239818
  },
  {
    "street": "Nolensville Pike",
    "housenumber": "5325",
    "city": "Nashville",
    "postcode": "37211",
    "lat": 36.0516114,
    "lon": -86.7156698
  },
  {
    "street": "Nolensville Pike",
    "housenumber": "5891",
    "city": "Nashville",
    "postcode": "37211",
    "lat": 36.0365223,
    "lon": -86.7154173
  },
  {
    "street": "Ben Allen Road",
    "housenumber": "131",
    "city": "Nashville",
    "postcode": "37207",
    "lat": 36.2256219,
    "lon": -86.7575881
  },
  {
    "street": "Dabbs Avenue",
    "housenumber": "1943",
    "city": "Nashville",
    "postcode": "37217",
    "lat": 36.1421307,
    "lon": -86.7033779
  },
  {
    "street": "Murfreesboro Road",
    "housenumber": "335",
    "city": "Nashville",
    "postcode": "37210",
    "lat": 36.145,
    "lon": -86.7531
  },
  {
    "street": "Nolensville Pike",
    "housenumber": "6117",
    "city": "Nashville",
    "postcode": "37211",
    "lat": 36.0224386,
    "lon": -86.714264
  },
  {
    "street": "Parmon Place",
    "housenumber": "2401",
    "city": "Nashville",
    "postcode": "37203",
    "lat": 36.1526984,
    "lon": -86.8104941
  },
  {
    "street": "Hayes Street",
    "housenumber": "2000",
    "city": "Nashville",
    "postcode": "37203",
    "lat": 36.1525321,
    "lon": -86.8011062
  },
  {
    "street": "Murfreesboro Road",
    "housenumber": "329",
    "city": "Nashville",
    "postcode": "37210",
    "lat": 36.1446917,
    "lon": -86.7546188
  },
  {
    "street": "Wedgewood Avenue",
    "housenumber": "510",
    "city": "Nashville",
    "postcode": "37203",
    "lat": 36.1338458,
    "lon": -86.7656014
  },
  {
    "street": "Laurel Avenue",
    "housenumber": "405",
    "city": "Nashville",
    "postcode": "31639",
    "lat": 31.2021896,
    "lon": -83.2387985
  },
  {
    "street": "Thompson Lane",
    "housenumber": "384",
    "city": "Nashville",
    "postcode": "37211",
    "lat": 36.1121601,
    "lon": -86.743747
  },
  {
    "street": "2nd Avenue North",
    "housenumber": "120",
    "city": "Nashville",
    "lat": 36.162589,
    "lon": -86.7754753
  },
  {
    "street": "Broadway",
    "housenumber": "100",
    "city": "Nashville",
    "lat": 36.1623537,
    "lon": -86.7749578
  },
  {
    "street": "Broadway",
    "housenumber": "1900",
    "city": "Nashville",
    "lat": 36.15107,
    "lon": -86.7967881
  },
  {
    "street": "Old Hickory Boulevard",
    "housenumber": "15564",
    "city": "Nashville",
    "postcode": "37211",
    "lat": 36.0410541,
    "lon": -86.7425541
  },
  {
    "street": "Edmondson Pike",
    "housenumber": "5531",
    "city": "Nashville",
    "postcode": "37211",
    "lat": 36.042185,
    "lon": -86.745587
  },
  {
    "street": "Nolensville Pike",
    "housenumber": "4047",
    "city": "Nashville",
    "postcode": "37211",
    "lat": 36.0810183,
    "lon": -86.7280026
  },
  {
    "street": "Nolensville Pike",
    "housenumber": "3979",
    "city": "Nashville",
    "postcode": "37211",
    "lat": 36.0843009,
    "lon": -86.7291209
  },
  {
    "street": "Lebanon Pike",
    "housenumber": "3055",
    "city": "Nashville",
    "postcode": "37214",
    "lat": 36.1791633,
    "lon": -86.642842
  },
  {
    "street": "Cruzen St",
    "housenumber": "2316",
    "city": "Nashville",
    "lat": 36.120244,
    "lon": -86.753738
  },
  {
    "street": "Harding Place",
    "housenumber": "398",
    "city": "Nashville",
    "postcode": "37211",
    "lat": 36.0807649,
    "lon": -86.722188
  },
  {
    "street": "State Road 46 East",
    "housenumber": "2356",
    "city": "Nashville",
    "postcode": "47448",
    "lat": 39.1952393,
    "lon": -86.2032138
  },
  {
    "street": "McGavock Pike",
    "housenumber": "1400",
    "city": "Nashville",
    "lat": 36.2047401,
    "lon": -86.7241076
  },
  {
    "street": "McGavock Pike",
    "housenumber": "1400",
    "city": "Nashville",
    "postcode": "37216",
    "lat": 36.2047816,
    "lon": -86.7239602
  },
  {
    "street": "McGavock Pike",
    "housenumber": "1400",
    "city": "Nashville",
    "postcode": "37216",
    "lat": 36.2048314,
    "lon": -86.7238851
  },
  {
    "street": "McGavock Pike",
    "housenumber": "1400",
    "city": "Nashville",
    "postcode": "37216",
    "lat": 36.2047351,
    "lon": -86.7237202
  },
  {
    "street": "8th Ave South",
    "housenumber": "1808",
    "city": "Nashville",
    "postcode": "37221",
    "lat": 36.1354102,
    "lon": -86.7785375
  },
  {
    "street": "Murphy Road",
    "housenumber": "3433",
    "city": "Nashville",
    "postcode": "37203",
    "lat": 36.139387,
    "lon": -86.8222301
  },
  {
    "street": "West Eastland Avenue",
    "housenumber": "935",
    "city": "Nashville",
    "postcode": "37206",
    "lat": 36.1845051,
    "lon": -86.7542282
  },
  {
    "street": "McGavock Pike",
    "housenumber": "1304",
    "city": "Nashville",
    "postcode": "37216",
    "lat": 36.2041725,
    "lon": -86.7252458
  },
  {
    "street": "McGavock Pike",
    "housenumber": "1308",
    "city": "Nashville",
    "postcode": "37216",
    "lat": 36.2043842,
    "lon": -86.7248001
  },
  {
    "street": "McGavock Pike",
    "housenumber": "1307",
    "city": "Nashville",
    "postcode": "37216",
    "lat": 36.2045325,
    "lon": -86.7253782
  },
  {
    "street": "Mcgavock Pike",
    "housenumber": "1404",
    "city": "Nashville",
    "postcode": "37216",
    "lat": 36.204786,
    "lon": -86.7235458
  },
  {
    "street": "Edmonson Pike",
    "housenumber": "5533",
    "city": "Nipper's Corner",
    "postcode": "37211",
    "lat": 36.0416968,
    "lon": -86.7457261
  },
  {
    "street": "McGavock Pike",
    "housenumber": "143",
    "city": "Nashville",
    "postcode": "37214",
    "lat": 36.1706942,
    "lon": -86.6787276
  },
  {
    "street": "Lebanon Pk",
    "housenumber": "2500",
    "city": "Nashville",
    "postcode": "37214",
    "lat": 36.1699509,
    "lon": -86.6792328
  },
  {
    "street": "McGavock Pk",
    "housenumber": "2727",
    "city": "Nashville",
    "postcode": "37214",
    "lat": 36.2160402,
    "lon": -86.6887144
  },
  {
    "street": "Athens Way",
    "housenumber": "200",
    "city": "Nashville",
    "lat": 36.19577,
    "lon": -86.7992275
  },
  {
    "street": "Riverside Drive",
    "housenumber": "1601",
    "city": "Nashville",
    "postcode": "37216",
    "lat": 36.1956536,
    "lon": -86.722915
  },
  {
    "street": "Colice Jeanne Road",
    "housenumber": "646",
    "city": "Nashville",
    "postcode": "37221",
    "lat": 36.0723502,
    "lon": -86.9342254
  },
  {
    "street": "Memphis-Bristol Highway",
    "housenumber": "7087",
    "city": "Nashville",
    "postcode": "37221",
    "lat": 36.0731105,
    "lon": -86.9194867
  },
  {
    "street": "Smith Springs Road",
    "housenumber": "2825",
    "city": "Nashville",
    "postcode": "37217",
    "lat": 36.0884232,
    "lon": -86.6078893
  },
  {
    "street": "Nolensville Pike",
    "housenumber": "6688",
    "city": "Brentwood",
    "postcode": "37027",
    "lat": 36.0005963,
    "lon": -86.6917951
  },
  {
    "street": "Nolensville Pike Road",
    "housenumber": "6688",
    "city": "Brentwood",
    "postcode": "37027",
    "lat": 36.0004922,
    "lon": -86.6922189
  },
  {
    "street": "Nolensville Road",
    "housenumber": "6680",
    "city": "Brentwood",
    "postcode": "37027",
    "lat": 35.9990643,
    "lon": -86.692294
  },
  {
    "street": "Concord Road",
    "housenumber": "10638",
    "city": "Brentwood",
    "postcode": "37027-8811",
    "lat": 35.997094,
    "lon": -86.6917307
  },
  {
    "street": "Murfreesboro Pike",
    "housenumber": "3532",
    "city": "Antioch",
    "postcode": "37013-2210",
    "lat": 36.0533492,
    "lon": -86.6149191
  },
  {
    "street": "E Streamridge Ct",
    "housenumber": "3213",
    "city": "Nashville",
    "lat": 36.0442444,
    "lon": -86.6209167
  },
  {
    "street": "Church Street",
    "housenumber": "107",
    "city": "Nashville",
    "lat": 36.164666,
    "lon": -86.7764598
  },
  {
    "street": "Highway 100",
    "housenumber": "8080B",
    "city": "Nashville",
    "postcode": "37221",
    "lat": 36.0462746,
    "lon": -86.9543047
  },
  {
    "street": "Bell Road",
    "housenumber": "3686",
    "city": "Nashville",
    "postcode": "37214",
    "lat": 36.151216,
    "lon": -86.6256369
  },
  {
    "street": "Jackson Downs Boulevard",
    "housenumber": "2330",
    "city": "Nashville",
    "postcode": "37214",
    "lat": 36.1836125,
    "lon": -86.6346204
  },
  {
    "street": "21st Avenue South",
    "housenumber": "1500",
    "city": "Nashville",
    "postcode": "37212",
    "lat": 36.1393593,
    "lon": -86.8002679
  },
  {
    "street": "West End Avenue",
    "housenumber": "1720",
    "city": "Nashville",
    "postcode": "37203",
    "lat": 36.1533842,
    "lon": -86.7956626
  },
  {
    "street": "West End Avenue",
    "housenumber": "2316",
    "city": "Nashville",
    "postcode": "37203",
    "lat": 36.1483524,
    "lon": -86.8059586
  },
  {
    "street": "West End Avenue",
    "housenumber": "2501",
    "city": "Nashville",
    "postcode": "37203",
    "lat": 36.1464799,
    "lon": -86.8083913
  },
  {
    "street": "West End Avenue",
    "housenumber": "2825",
    "city": "Nashville",
    "postcode": "37203",
    "lat": 36.144235,
    "lon": -86.8130984
  },
  {
    "street": "West End Avenue",
    "housenumber": "3212",
    "city": "Nashville",
    "postcode": "37203",
    "lat": 36.1415325,
    "lon": -86.8178874
  },
  {
    "street": "West End Avenue",
    "housenumber": "3005",
    "city": "Nashville",
    "postcode": "37203",
    "lat": 36.1435685,
    "lon": -86.813789
  },
  {
    "street": "West End Avenue",
    "housenumber": "2818",
    "city": "Nashville",
    "postcode": "37203",
    "lat": 36.1449938,
    "lon": -86.8132418
  },
  {
    "street": "Elliston Place",
    "housenumber": "2424",
    "city": "Nashville",
    "postcode": "37203",
    "lat": 36.1481127,
    "lon": -86.808387
  },
  {
    "street": "West End Avenue",
    "housenumber": "2018",
    "city": "Nashville",
    "postcode": "37203",
    "lat": 36.1508705,
    "lon": -86.8007309
  },
  {
    "street": "West End Avenue",
    "housenumber": "1616",
    "city": "Nashville",
    "postcode": "37203",
    "lat": 36.1539004,
    "lon": -86.793505
  },
  {
    "street": "Harding Pike",
    "housenumber": "4560",
    "city": "Nashville",
    "postcode": "37205",
    "lat": 36.123772,
    "lon": -86.8503093
  },
  {
    "street": "Harding Pike",
    "housenumber": "4514",
    "city": "Nashville",
    "postcode": "37205",
    "lat": 36.1249852,
    "lon": -86.8491613
  },
  {
    "street": "Nolensville Pike",
    "housenumber": "3734",
    "city": "Nashville",
    "postcode": "37211",
    "lat": 36.0924172,
    "lon": -86.7351173
  },
  {
    "street": "Nolensville pike",
    "housenumber": "3798",
    "city": "Nashville",
    "postcode": "37211",
    "lat": 36.0882059,
    "lon": -86.7310055
  },
  {
    "street": "Nolensville Pike",
    "housenumber": "3802",
    "city": "Nashville",
    "postcode": "37211",
    "lat": 36.0878829,
    "lon": -86.7305361
  },
  {
    "street": "Nolensville Pike",
    "housenumber": "6023",
    "city": "Nashville",
    "postcode": "37211",
    "lat": 36.0265243,
    "lon": -86.7133298
  },
  {
    "street": "Lebanon Pike",
    "housenumber": "2417 B",
    "city": "Nashville",
    "postcode": "37214",
    "lat": 36.1686664,
    "lon": -86.6810608
  },
  {
    "street": "Logan Street",
    "housenumber": "2861B",
    "city": "Nashville",
    "postcode": "37211",
    "lat": 36.1113986,
    "lon": -86.7421574
  },
  {
    "street": "Thompson Lane",
    "housenumber": "731",
    "city": "Nashville",
    "postcode": "37204",
    "lat": 36.1113853,
    "lon": -86.7666851
  },
  {
    "street": "Thompson Lane",
    "housenumber": "216",
    "city": "Nashville",
    "postcode": "37211",
    "lat": 36.1112507,
    "lon": -86.7412909
  },
  {
    "street": "Thompson Lane",
    "housenumber": "415",
    "city": "Nashville",
    "postcode": "37211",
    "lat": 36.110852,
    "lon": -86.7470946
  },
  {
    "street": "Thompson Lane",
    "housenumber": "741",
    "city": "Nashville",
    "postcode": "37204",
    "lat": 36.1120451,
    "lon": -86.7674354
  },
  {
    "street": "thompson Lane",
    "housenumber": "727",
    "city": "Nashville",
    "postcode": "37204",
    "lat": 36.111936,
    "lon": -86.7665863
  },
  {
    "street": "West Thompson Lane",
    "housenumber": "413",
    "city": "Nashville",
    "postcode": "37211",
    "lat": 36.1107353,
    "lon": -86.7469017
  },
  {
    "street": "Thompson Lane",
    "housenumber": "400",
    "city": "Nashville",
    "postcode": "37211",
    "lat": 36.1115488,
    "lon": -86.7460719
  },
  {
    "street": "Thompson Lane",
    "housenumber": "222",
    "city": "Nashville",
    "postcode": "37211",
    "lat": 36.1112838,
    "lon": -86.7416141
  },
  {
    "street": "Thompson Lane",
    "housenumber": "721",
    "city": "Nashville",
    "postcode": "37204",
    "lat": 36.111451,
    "lon": -86.7649547
  },
  {
    "street": "Powell Avenue",
    "housenumber": "2534",
    "city": "Nashville",
    "postcode": "37204",
    "lat": 36.1061346,
    "lon": -86.7636763
  },
  {
    "street": "Powell Avenue",
    "housenumber": "2534",
    "city": "Nashville",
    "postcode": "37204",
    "lat": 36.1059331,
    "lon": -86.7634885
  },
  {
    "street": "Powell Avenue",
    "housenumber": "2501",
    "city": "Nashville",
    "postcode": "37204",
    "lat": 36.1090871,
    "lon": -86.7675266
  },
  {
    "street": "Thompson Lane",
    "housenumber": "635",
    "city": "Nashville",
    "postcode": "37204",
    "lat": 36.110727,
    "lon": -86.754788
  },
  {
    "street": "Thompson Lane",
    "housenumber": "614",
    "city": "Nashville",
    "postcode": "37204",
    "lat": 36.111512,
    "lon": -86.7537202
  },
  {
    "street": "Thompson Lane",
    "housenumber": "618",
    "city": "Nashville",
    "postcode": "37204",
    "lat": 36.1114947,
    "lon": -86.7541145
  },
  {
    "street": "Eugenia Avenue",
    "housenumber": "2728",
    "city": "Nashville",
    "postcode": "37211",
    "lat": 36.1123398,
    "lon": -86.7530577
  },
  {
    "street": "Thompson Lane",
    "housenumber": "645",
    "city": "Nashville",
    "postcode": "37204",
    "lat": 36.1108143,
    "lon": -86.7557453
  },
  {
    "street": "Nolensville Pike",
    "housenumber": "3621",
    "city": "Nashville",
    "postcode": "37211",
    "lat": 36.0960932,
    "lon": -86.7382734
  },
  {
    "street": "Thompson Lane",
    "housenumber": "646",
    "city": "Nashville",
    "postcode": "37204",
    "lat": 36.1116749,
    "lon": -86.7568431
  },
  {
    "street": "Thompson Lane",
    "housenumber": "307",
    "city": "Nashville",
    "postcode": "37211",
    "lat": 36.1105008,
    "lon": -86.7435944
  },
  {
    "street": "Thompson Lane",
    "housenumber": "609",
    "city": "Nashville",
    "postcode": "37204",
    "lat": 36.1106086,
    "lon": -86.7531597
  },
  {
    "street": "Thompson Lane",
    "housenumber": "729",
    "city": "Nashville",
    "postcode": "37204",
    "lat": 36.1115534,
    "lon": -86.7666512
  },
  {
    "street": "Harding Place",
    "housenumber": "405",
    "city": "Nashville",
    "postcode": "37211",
    "lat": 36.0783848,
    "lon": -86.726975
  },
  {
    "street": "Nolensville Pike",
    "housenumber": "4044",
    "city": "Nashville",
    "postcode": "37211",
    "lat": 36.0811509,
    "lon": -86.7262991
  },
  {
    "street": "Nolensville Pike",
    "housenumber": "4043",
    "city": "Nashville",
    "postcode": "37211",
    "lat": 36.0815732,
    "lon": -86.7275651
  },
  {
    "street": "Harding Mall Drive",
    "housenumber": "11",
    "city": "Nashville",
    "postcode": "37211",
    "lat": 36.080579,
    "lon": -86.7238307
  },
  {
    "street": "Nolensville Pike",
    "housenumber": "4114",
    "city": "Nashville",
    "postcode": "37211",
    "lat": 36.0784221,
    "lon": -86.7249803
  },
  {
    "street": "Nolensville Pike",
    "housenumber": "3905",
    "city": "Nashville",
    "postcode": "37211",
    "lat": 36.0860489,
    "lon": -86.730198
  },
  {
    "street": "Nolensville Pike",
    "housenumber": "3901",
    "city": "Nashville",
    "postcode": "37211",
    "lat": 36.0865431,
    "lon": -86.7302463
  },
  {
    "street": "Nolensville Pike",
    "housenumber": "3926",
    "city": "Nashville",
    "postcode": "37211",
    "lat": 36.0851525,
    "lon": -86.727828
  },
  {
    "street": "Nolensville Pike",
    "housenumber": "3730",
    "city": "Nashville",
    "postcode": "37211",
    "lat": 36.0927171,
    "lon": -86.7353815
  },
  {
    "street": "Nolensville Pike",
    "housenumber": "4225",
    "city": "Nashville",
    "postcode": "37211",
    "lat": 36.075198,
    "lon": -86.7256687
  },
  {
    "street": "Paragon Mills Road",
    "housenumber": "540",
    "city": "Nashville",
    "postcode": "37211",
    "lat": 36.0854816,
    "lon": -86.7274578
  },
  {
    "street": "Welch Road",
    "housenumber": "340",
    "city": "Nashville",
    "postcode": "37211",
    "lat": 36.0835481,
    "lon": -86.7266209
  },
  {
    "street": "Welch Road",
    "housenumber": "330",
    "city": "Nashville",
    "postcode": "37211",
    "lat": 36.0835611,
    "lon": -86.7259128
  },
  {
    "street": "Nolensville Pike",
    "housenumber": "3973",
    "city": "Nashville",
    "postcode": "37211",
    "lat": 36.0842417,
    "lon": -86.7293675
  },
  {
    "street": "Nolensville Pike",
    "housenumber": "2950",
    "city": "Nashville",
    "postcode": "37211",
    "lat": 36.1080409,
    "lon": -86.7433103
  },
  {
    "street": "Nolensville Pike",
    "housenumber": "3416",
    "city": "Nashville",
    "postcode": "37211",
    "lat": 36.0989482,
    "lon": -86.7387715
  },
  {
    "street": "Nolensville Pike",
    "housenumber": "4124",
    "city": "Nashville",
    "postcode": "37211",
    "lat": 36.0781894,
    "lon": -86.7249154
  },
  {
    "street": "McCall Street",
    "housenumber": "316",
    "city": "Nashville",
    "postcode": "37211",
    "lat": 36.0999039,
    "lon": -86.7389591
  },
  {
    "street": "Edmondson Pike",
    "housenumber": "4905",
    "city": "Nashville",
    "postcode": "37211",
    "lat": 36.0771232,
    "lon": -86.7263635
  },
  {
    "street": "Nolensville Pike",
    "housenumber": "3611",
    "city": "Nashville",
    "postcode": "37211",
    "lat": 36.0967348,
    "lon": -86.7384338
  },
  {
    "street": "Armory Oaks Drive",
    "housenumber": "4041",
    "city": "Nashville",
    "postcode": "37204",
    "lat": 36.1047279,
    "lon": -86.762316
  },
  {
    "street": "Nolensville Pike",
    "housenumber": "3740",
    "city": "Nashville",
    "postcode": "37211",
    "lat": 36.0920408,
    "lon": -86.734958
  },
  {
    "street": "Nolensville Pike",
    "housenumber": "3734",
    "city": "Nashville",
    "postcode": "37211",
    "lat": 36.0923047,
    "lon": -86.7350865
  },
  {
    "street": "Nolensville Pike",
    "housenumber": "3715",
    "city": "Nashville",
    "postcode": "37211",
    "lat": 36.0946936,
    "lon": -86.7374093
  },
  {
    "street": "Nolensville Pike",
    "housenumber": "3721",
    "city": "Nashville",
    "postcode": "37211",
    "lat": 36.0944812,
    "lon": -86.7372161
  },
  {
    "street": "Nolensville Pike",
    "housenumber": "3754",
    "city": "Nashville",
    "postcode": "37211",
    "lat": 36.0902803,
    "lon": -86.7331073
  },
  {
    "street": "Nolensville Pike",
    "housenumber": "3813",
    "city": "Nashville",
    "postcode": "37211",
    "lat": 36.0871423,
    "lon": -86.7311117
  },
  {
    "street": "Nolensville Pike",
    "housenumber": "3811",
    "city": "Nashville",
    "postcode": "37211",
    "lat": 36.0873781,
    "lon": -86.7312906
  },
  {
    "street": "Nolensville Pike",
    "housenumber": "3600",
    "city": "Nashville",
    "postcode": "37211",
    "lat": 36.0976262,
    "lon": -86.7380048
  },
  {
    "street": "Nolensville Pike",
    "housenumber": "3604",
    "city": "Nashville",
    "postcode": "37211",
    "lat": 36.0971537,
    "lon": -86.737742
  },
  {
    "street": "Thompson Lane",
    "housenumber": "524",
    "city": "Nashville",
    "postcode": "37211",
    "lat": 36.1114673,
    "lon": -86.7492704
  },
  {
    "street": "Thompson Lane",
    "housenumber": "530",
    "city": "Nashville",
    "postcode": "37211",
    "lat": 36.111502,
    "lon": -86.7497156
  },
  {
    "street": "Thompson Lane",
    "housenumber": "204",
    "city": "Nashville",
    "postcode": "37211",
    "lat": 36.110934,
    "lon": -86.7411217
  },
  {
    "street": "Nolensville Pike",
    "housenumber": "3404",
    "city": "Nashville",
    "postcode": "37211",
    "lat": 36.0991968,
    "lon": -86.7389064
  },
  {
    "street": "Elysian Fields Court",
    "housenumber": "389",
    "city": "Nashville",
    "postcode": "37211",
    "lat": 36.0874935,
    "lon": -86.7292604
  },
  {
    "street": "Nolensville Pike",
    "housenumber": "3900",
    "city": "Nashville",
    "postcode": "37211",
    "lat": 36.0869148,
    "lon": -86.7296252
  },
  {
    "street": "Nolensville Pike",
    "housenumber": "3804",
    "city": "Nashville",
    "postcode": "37211",
    "lat": 36.0881633,
    "lon": -86.7298881
  },
  {
    "street": "Nolensville Pike",
    "housenumber": "3808",
    "city": "Nashville",
    "postcode": "37211",
    "lat": 36.0878815,
    "lon": -86.7296306
  },
  {
    "street": "Elysian Fields  Court",
    "housenumber": "391",
    "city": "Nashville",
    "postcode": "37211",
    "lat": 36.087383,
    "lon": -86.7291263
  },
  {
    "street": "Nolensville Pike",
    "housenumber": "3724",
    "city": "Nashville",
    "postcode": "37211",
    "lat": 36.0930118,
    "lon": -86.735644
  },
  {
    "street": "Nolensville Pike",
    "housenumber": "4095",
    "city": "Nashville",
    "postcode": "37211",
    "lat": 36.0808904,
    "lon": -86.727377
  },
  {
    "street": "Nolensville Pike",
    "housenumber": "4035",
    "city": "Nashville",
    "postcode": "37211",
    "lat": 36.0823123,
    "lon": -86.7275978
  },
  {
    "street": "Nolensville Pike",
    "housenumber": "4010",
    "city": "Nashville",
    "postcode": "37211",
    "lat": 36.0842894,
    "lon": -86.7273344
  },
  {
    "street": "Nolensville Pike",
    "housenumber": "3020",
    "city": "Nashville",
    "postcode": "37211",
    "lat": 36.1060604,
    "lon": -86.742355
  },
  {
    "street": "Nolensville Pike",
    "housenumber": "3744",
    "city": "Nashville",
    "postcode": "37211",
    "lat": 36.0918586,
    "lon": -86.7347861
  },
  {
    "street": "Hermitage Avenue",
    "housenumber": "89",
    "city": "Nashville",
    "postcode": "37210",
    "lat": 36.1552442,
    "lon": -86.7655857
  },
  {
    "street": "Belle Forest Circle",
    "housenumber": "120",
    "city": "Nashville",
    "postcode": "37221",
    "lat": 36.0753289,
    "lon": -86.9235467
  },
  {
    "street": "Elm Hill Pike",
    "housenumber": "2750",
    "city": "Nashville",
    "postcode": "37214",
    "lat": 36.149326,
    "lon": -86.6669157
  },
  {
    "street": "Main Street",
    "housenumber": "420",
    "city": "Nashville",
    "postcode": "37206",
    "lat": 36.1726529,
    "lon": -86.7654003
  },
  {
    "street": "Fatherland Street",
    "housenumber": "700",
    "city": "Nashville",
    "postcode": "37206",
    "lat": 36.1715188,
    "lon": -86.7589418
  },
  {
    "street": "Eastland Avenue",
    "housenumber": "1921",
    "city": "Nashville",
    "postcode": "37206",
    "lat": 36.1826431,
    "lon": -86.7346565
  },
  {
    "street": "Eastland Avenue",
    "housenumber": "1886",
    "city": "Nashville",
    "postcode": "37206",
    "lat": 36.1822231,
    "lon": -86.7354883
  },
  {
    "street": "Fatherland Street",
    "housenumber": "1100",
    "city": "Nashville",
    "postcode": "37206",
    "lat": 36.182513,
    "lon": -86.7354022
  },
  {
    "street": "Nolensville Pike",
    "housenumber": "5560",
    "city": "Nashville",
    "postcode": "37211",
    "lat": 36.0481902,
    "lon": -86.7106247
  },
  {
    "street": "Hillsboro Pike",
    "housenumber": "4021",
    "city": "Nashville",
    "postcode": "37215",
    "lat": 36.1032761,
    "lon": -86.8186106
  },
  {
    "street": "5th Avenue North",
    "housenumber": "1121",
    "city": "Nashville",
    "postcode": "37208",
    "lat": 36.1751569,
    "lon": -86.7881131
  },
  {
    "street": "6th Avenue North",
    "housenumber": "1239",
    "city": "Nashville",
    "postcode": "37208",
    "lat": 36.1761103,
    "lon": -86.7903022
  },
  {
    "street": "Charlotte Pike",
    "housenumber": "5615",
    "city": "Nashville",
    "postcode": "37209",
    "lat": 36.1496,
    "lon": -86.8584112
  },
  {
    "street": "Nolensville Pike",
    "housenumber": "3943",
    "city": "Nashville",
    "postcode": "37211",
    "lat": 36.084998,
    "lon": -86.7306901
  },
  {
    "street": "Timmons Street",
    "housenumber": "300",
    "city": "Nashville",
    "postcode": "37211",
    "lat": 36.1073213,
    "lon": -86.7437799
  },
  {
    "street": "Nolensville Pike",
    "housenumber": "3031",
    "city": "Nashville",
    "postcode": "37211",
    "lat": 36.1053827,
    "lon": -86.7426314
  },
  {
    "street": "Nolensville Pike",
    "housenumber": "3035",
    "city": "Nashville",
    "postcode": "37211",
    "lat": 36.105023,
    "lon": -86.7424678
  },
  {
    "street": "Nolensville Pike",
    "housenumber": "3013",
    "city": "Nashville",
    "postcode": "37211",
    "lat": 36.1065478,
    "lon": -86.7432458
  },
  {
    "street": "Hickory Hollow Place",
    "housenumber": "300",
    "city": "Antioch",
    "postcode": "37013",
    "lat": 36.0511141,
    "lon": -86.6639308
  },
  {
    "street": "Old Franklin Road",
    "housenumber": "2921",
    "city": "Cane Ridge",
    "postcode": "37013",
    "lat": 36.0382917,
    "lon": -86.6371778
  },
  {
    "street": "Mount View Road",
    "housenumber": "5319",
    "city": "Antioch",
    "postcode": "37013",
    "lat": 36.0496432,
    "lon": -86.6471429
  },
  {
    "street": "Cane Ridge Road",
    "housenumber": "5272",
    "city": "Nashville",
    "postcode": "37013",
    "lat": 36.0453186,
    "lon": -86.6612085
  },
  {
    "street": "Bell Road",
    "housenumber": "1110",
    "city": "Nashville",
    "postcode": "37013",
    "lat": 36.044427,
    "lon": -86.6627956
  },
  {
    "street": "Bell Road",
    "housenumber": "1101",
    "city": "Nashville",
    "postcode": "37013",
    "lat": 36.0451986,
    "lon": -86.6620657
  },
  {
    "street": "Harding Place",
    "housenumber": "731",
    "city": "Nashville",
    "postcode": "37211",
    "lat": 36.0810506,
    "lon": -86.7594466
  },
  {
    "street": "Trousdale Drive",
    "housenumber": "4801",
    "city": "Nashville",
    "postcode": "37220",
    "lat": 36.0780758,
    "lon": -86.7590173
  },
  {
    "street": "Trousdale Drive",
    "housenumber": "4805",
    "city": "Nashville",
    "postcode": "37220",
    "lat": 36.0775792,
    "lon": -86.7590993
  },
  {
    "street": "Franklin Pike",
    "housenumber": "5621",
    "city": "Nashville",
    "postcode": "37027",
    "lat": 36.0379763,
    "lon": -86.7868111
  },
  {
    "street": "Old Hickory Boulevard",
    "housenumber": "799",
    "city": "Nashville",
    "postcode": "37027",
    "lat": 36.0371011,
    "lon": -86.7855116
  },
  {
    "street": "Franklin Road",
    "housenumber": "116",
    "city": "Nashville",
    "postcode": "37027",
    "lat": 36.0359766,
    "lon": -86.7867085
  },
  {
    "street": "East Due West Avenue",
    "housenumber": "109",
    "city": "Madison",
    "postcode": "37115",
    "lat": 36.2482577,
    "lon": -86.7187293
  },
  {
    "street": "Nolensville Pike",
    "housenumber": "2424",
    "city": "Nashville",
    "postcode": "37211",
    "lat": 36.119548,
    "lon": -86.7492649
  },
  {
    "street": "Church Street",
    "housenumber": "510",
    "city": "Nashville",
    "postcode": "37219",
    "lat": 36.1658744,
    "lon": -86.7869526
  },
  {
    "street": "Church Street",
    "housenumber": "500",
    "city": "Nashville",
    "postcode": "37219",
    "lat": 36.1632353,
    "lon": -86.7804756
  },
  {
    "street": "Church Street",
    "housenumber": "424",
    "city": "Nashville",
    "postcode": "37219",
    "lat": 36.163582,
    "lon": -86.7802181
  },
  {
    "street": "5th Avenue North",
    "housenumber": "226",
    "city": "Nashville",
    "postcode": "37219",
    "lat": 36.1639681,
    "lon": -86.7805619
  },
  {
    "street": "Seaboard Ln Ste E106",
    "housenumber": "256",
    "city": "Franklin",
    "postcode": "37067",
    "lat": 36.1628868,
    "lon": -86.7814495
  },
  {
    "street": "Division Street",
    "housenumber": "718",
    "city": "Nashville",
    "postcode": "37203",
    "lat": 36.1500629,
    "lon": -86.7789727
  },
  {
    "street": "Highway 100",
    "housenumber": "8161",
    "city": "Nashville-Davidson",
    "postcode": "37221",
    "lat": 36.0435637,
    "lon": -86.9570612
  },
  {
    "street": "Eastland Ave, #105",
    "housenumber": "1900",
    "city": "Nashville",
    "postcode": "37206",
    "lat": 36.1816606,
    "lon": -86.7356085
  },
  {
    "street": "Church Street",
    "housenumber": "530",
    "city": "Nashville",
    "postcode": "37219",
    "lat": 36.1628093,
    "lon": -86.781233
  },
  {
    "street": "Deaderick Street",
    "housenumber": "505",
    "city": "Nashville",
    "postcode": "37219",
    "lat": 36.164551,
    "lon": -86.7824167
  },
  {
    "street": "Deaderick Street",
    "housenumber": "300",
    "city": "Nashville",
    "postcode": "37201",
    "lat": 36.1663115,
    "lon": -86.7796883
  },
  {
    "street": "Nolensville Road #112",
    "housenumber": "6688",
    "city": "Brentwood",
    "postcode": "37027",
    "lat": 36.0005619,
    "lon": -86.6919276
  },
  {
    "street": "Gallatin Pike North",
    "housenumber": "2210",
    "city": "Nashville",
    "postcode": "37115",
    "lat": 36.3065345,
    "lon": -86.6873417
  },
  {
    "street": "Murfreesboro Pike",
    "housenumber": "2308",
    "city": "Nashville",
    "postcode": "37217",
    "lat": 36.0859386,
    "lon": -86.6476339
  },
  {
    "street": "Old Murfreesboro Road",
    "housenumber": "1931",
    "city": "Nashville",
    "lat": 36.0970069,
    "lon": -86.6553726
  },
  {
    "street": "Broadway",
    "housenumber": "111",
    "city": "Nashville",
    "lat": 36.1618042,
    "lon": -86.774844
  },
  {
    "street": "2nd Avenue North",
    "housenumber": "110",
    "city": "Nashville",
    "lat": 36.1623544,
    "lon": -86.7753043
  },
  {
    "street": "2nd Avenue North",
    "housenumber": "152",
    "city": "Nashville",
    "lat": 36.1634259,
    "lon": -86.775871
  },
  {
    "street": "2nd Avenue North",
    "housenumber": "184",
    "city": "Nashville",
    "lat": 36.1645735,
    "lon": -86.7767238
  },
  {
    "street": "Printers Alley",
    "housenumber": "207",
    "city": "Nashville",
    "lat": 36.1643878,
    "lon": -86.7785498
  },
  {
    "street": "Printers Alley",
    "housenumber": "210",
    "city": "Nashville",
    "lat": 36.1644103,
    "lon": -86.7787323
  },
  {
    "street": "Printers Alley",
    "housenumber": "220",
    "city": "Nashville",
    "lat": 36.1645181,
    "lon": -86.7788543
  },
  {
    "street": "Arcade Street",
    "housenumber": "25",
    "city": "Nashville",
    "lat": 36.1641563,
    "lon": -86.7802189
  },
  {
    "street": "4th Avenue North",
    "housenumber": "210",
    "city": "Nashville",
    "lat": 36.1640987,
    "lon": -86.7791144
  },
  {
    "street": "4th Avenue North",
    "housenumber": "315",
    "city": "Nashville",
    "postcode": "37219",
    "lat": 36.1651723,
    "lon": -86.7804034
  },
  {
    "street": "2612 ave",
    "housenumber": "139",
    "city": "Nashville",
    "lat": 36.16306,
    "lon": -86.7761303
  },
  {
    "street": "North 1st Street",
    "housenumber": "111",
    "city": "Nashville",
    "lat": 36.1712399,
    "lon": -86.7719732
  },
  {
    "street": "University Park Drive",
    "housenumber": "1",
    "city": "Nashville",
    "postcode": "37204",
    "lat": 36.1054764,
    "lon": -86.7979773
  },
  {
    "street": "Brick Church Pike",
    "housenumber": "2403",
    "city": "Nashville",
    "postcode": "37207-4405",
    "lat": 36.2097218,
    "lon": -86.7777565
  },
  {
    "street": "Main Street",
    "housenumber": "615",
    "city": "Nashville",
    "postcode": "37206",
    "lat": 36.1744079,
    "lon": -86.7616969
  },
  {
    "street": "Old Hickory Boulevard",
    "housenumber": "3838",
    "city": "Nashville-Davidson",
    "postcode": "37138",
    "lat": 36.2380239,
    "lon": -86.6283091
  },
  {
    "street": "Church Street",
    "housenumber": "424",
    "city": "Nashville",
    "postcode": "37219",
    "lat": 36.1637701,
    "lon": -86.7798752
  },
  {
    "street": "Kline Avenue",
    "housenumber": "2409",
    "city": "Nashville",
    "postcode": "37211",
    "lat": 36.119298,
    "lon": -86.7523152
  },
  {
    "street": "Charlotte Avenue",
    "housenumber": "4301",
    "city": "Nashville",
    "lat": 36.1519688,
    "lon": -86.8385242
  },
  {
    "street": "Charlotte Avenue",
    "housenumber": "2112",
    "city": "Nashville",
    "postcode": "37203",
    "lat": 36.1568838,
    "lon": -86.8070223
  },
  {
    "street": "Gallatin Pike",
    "housenumber": "2806",
    "city": "Nashville",
    "postcode": "37216-3713",
    "lat": 36.2006806,
    "lon": -86.7395587
  },
  {
    "street": "Benton Avenue",
    "housenumber": "901",
    "city": "Nashville",
    "postcode": "37204",
    "lat": 36.1312615,
    "lon": -86.7689383
  },
  {
    "street": "Rundle Avenue",
    "housenumber": "720",
    "city": "Nashville",
    "postcode": "37210",
    "lat": 36.147635,
    "lon": -86.7458561
  },
  {
    "street": "Woodland Street",
    "housenumber": "805",
    "city": "Nashville",
    "postcode": "37206",
    "lat": 36.1745989,
    "lon": -86.7582814
  },
  {
    "street": "Woodland Street",
    "housenumber": "805",
    "city": "Nashville",
    "postcode": "37206",
    "lat": 36.1749496,
    "lon": -86.7585442
  },
  {
    "street": "Woodland Street",
    "housenumber": "801",
    "city": "Nashville",
    "postcode": "37206",
    "lat": 36.1745382,
    "lon": -86.7585121
  },
  {
    "street": "Woodland Street",
    "housenumber": "803",
    "city": "Nashville",
    "postcode": "37206",
    "lat": 36.1745989,
    "lon": -86.7584155
  },
  {
    "street": "Woodland Street",
    "housenumber": "805",
    "city": "Nashville",
    "postcode": "37206",
    "lat": 36.1747894,
    "lon": -86.7583243
  },
  {
    "street": "Main Street",
    "housenumber": "634",
    "city": "Nashville",
    "postcode": "37206",
    "lat": 36.1742286,
    "lon": -86.7609421
  },
  {
    "street": "Fatherland Street",
    "housenumber": "1008",
    "city": "Nashville",
    "postcode": "37206",
    "lat": 36.1740706,
    "lon": -86.7506036
  },
  {
    "street": "4th Ave S #118",
    "housenumber": "1211",
    "city": "Nashville",
    "postcode": "37210",
    "lat": 36.144165,
    "lon": -86.7673024
  },
  {
    "street": "Lebanon Pike",
    "housenumber": "2730",
    "city": "Donelson",
    "postcode": "37214",
    "lat": 36.169076,
    "lon": -86.6655968
  },
  {
    "street": "Lebanon Pike",
    "housenumber": "2707",
    "city": "Donelson",
    "postcode": "37214",
    "lat": 36.1683355,
    "lon": -86.6668242
  },
  {
    "street": "Harding Place",
    "housenumber": "417",
    "city": "Nashville",
    "postcode": "37211",
    "lat": 36.0783128,
    "lon": -86.7276305
  },
  {
    "street": "2nd Avenue North",
    "housenumber": "901",
    "city": "Nashville",
    "postcode": "37201",
    "lat": 36.1727294,
    "lon": -86.7822177
  },
  {
    "street": "Firestone Parkway",
    "housenumber": "1024",
    "city": "LaVergne",
    "postcode": "37086",
    "lat": 36.0147135,
    "lon": -86.6139235
  },
  {
    "street": "Firestone Parkway",
    "housenumber": "1026",
    "city": "LaVergne",
    "postcode": "37086",
    "lat": 36.0144587,
    "lon": -86.6136253
  },
  {
    "street": "Abbott Martin Road",
    "housenumber": "2131",
    "city": "Nashville",
    "postcode": "37215",
    "lat": 36.1059094,
    "lon": -86.8187064
  },
  {
    "street": "East McPherson Avenue",
    "housenumber": "207",
    "city": "Nashville",
    "postcode": "31639",
    "lat": 31.204672,
    "lon": -83.2481107
  },
  {
    "street": "Old Hickory Boulevard",
    "housenumber": "4619",
    "city": "Old Hickory",
    "postcode": "37138",
    "lat": 36.2023651,
    "lon": -86.6216336
  },
  {
    "street": "Davidson",
    "housenumber": "406",
    "city": "Nashville",
    "postcode": "37213",
    "lat": 36.1604162,
    "lon": -86.7612059
  },
  {
    "street": "Craig Avenue",
    "housenumber": "2711",
    "city": "nashville",
    "postcode": "37204",
    "lat": 36.116548,
    "lon": -86.7833429
  },
  {
    "street": "Pine Street",
    "housenumber": "316",
    "city": "Nashville",
    "postcode": "37203",
    "lat": 36.1530058,
    "lon": -86.7832358
  },
  {
    "street": "Music Circle South",
    "housenumber": "1",
    "city": "Nashville",
    "postcode": "37203",
    "lat": 36.1493286,
    "lon": -86.7905086
  },
  {
    "street": "Music Circle South",
    "housenumber": "2",
    "city": "Nashville",
    "postcode": "37203",
    "lat": 36.1497165,
    "lon": -86.7900822
  },
  {
    "street": "Bandywood Drive",
    "housenumber": "2176",
    "city": "Nashville",
    "postcode": "37215",
    "lat": 36.1054771,
    "lon": -86.8173975
  },
  {
    "street": "Ashwood Avenue",
    "housenumber": "1801",
    "city": "Nashville",
    "lat": 36.1284729,
    "lon": -86.7980696
  },
  {
    "street": "Ashwood Avenue",
    "housenumber": "1803",
    "city": "Nashville",
    "lat": 36.1284882,
    "lon": -86.7982922
  },
  {
    "street": "Great Circle Road Suite 229",
    "housenumber": "230",
    "city": "Nashville",
    "postcode": "37228",
    "lat": 36.1948507,
    "lon": -86.7934741
  },
  {
    "street": "West End Avenue",
    "housenumber": "3401",
    "city": "Nashville",
    "postcode": "37203",
    "lat": 36.1390468,
    "lon": -86.8188085
  },
  {
    "street": "1305",
    "housenumber": "1305",
    "city": "Nashville",
    "postcode": "37203",
    "lat": 36.1403268,
    "lon": -86.7789227
  },
  {
    "street": "21st Ave Street",
    "housenumber": "2200",
    "city": "Nashville",
    "postcode": "37212",
    "lat": 36.1301418,
    "lon": -86.8017899
  },
  {
    "street": "St Paul Drive",
    "housenumber": "524",
    "city": "Hermitage",
    "postcode": "37076",
    "lat": 36.210062,
    "lon": -86.5939088
  },
  {
    "street": "Clarksville Pike",
    "housenumber": "3200",
    "city": "Nashville",
    "postcode": "37218",
    "lat": 36.1943211,
    "lon": -86.8315015
  },
  {
    "street": "River Trail Drive",
    "housenumber": "2574",
    "city": "Hermitage",
    "postcode": "37076",
    "lat": 36.1641243,
    "lon": -86.622432
  },
  {
    "street": "Elm Hill Pike",
    "housenumber": "2300",
    "city": "Nashville",
    "postcode": "37214",
    "lat": 36.1538077,
    "lon": -86.6869278
  },
  {
    "street": "West End Avenue",
    "housenumber": "1800",
    "city": "Nashville",
    "postcode": "37203",
    "lat": 36.1531769,
    "lon": -86.7963465
  },
  {
    "street": "Hayes Street",
    "housenumber": "1801",
    "city": "Nashville",
    "postcode": "37203",
    "lat": 36.1536399,
    "lon": -86.7966792
  },
  {
    "street": "Willow Street",
    "housenumber": "220",
    "city": "Nashville",
    "postcode": "37210",
    "lat": 36.1549256,
    "lon": -86.7542765
  },
  {
    "street": "Gallatin Pike",
    "housenumber": "2904",
    "city": "Nashville",
    "postcode": "37216",
    "lat": 36.2029784,
    "lon": -86.7383854
  },
  {
    "street": "Harding Place",
    "housenumber": "5259",
    "city": "Nashville",
    "postcode": "37217",
    "lat": 36.0923696,
    "lon": -86.6811015
  },
  {
    "street": "Whites Creek Pike",
    "housenumber": "4125",
    "city": "Nashville",
    "postcode": "37189",
    "lat": 36.2570112,
    "lon": -86.8295251
  },
  {
    "street": "12th Avenue South",
    "housenumber": "402",
    "city": "Nashville",
    "postcode": "37203",
    "lat": 36.1525608,
    "lon": -86.7846399
  },
  {
    "street": "C1TY AVENUE",
    "housenumber": "3",
    "city": "Nashville",
    "postcode": "37209",
    "lat": 36.1526324,
    "lon": -86.820117
  },
  {
    "street": "C1TY AVENUE",
    "housenumber": "3",
    "city": "Nashville",
    "postcode": "37209",
    "lat": 36.1526813,
    "lon": -86.819863
  },
  {
    "street": "C1TY BLVD",
    "housenumber": "8",
    "city": "Nashville",
    "postcode": "37209",
    "lat": 36.1513527,
    "lon": -86.820215
  },
  {
    "street": "West End Avenue",
    "housenumber": "2817",
    "city": "Nashville",
    "postcode": "37203",
    "lat": 36.144374,
    "lon": -86.812215
  },
  {
    "street": "Woodland Street",
    "housenumber": "1109 Woodland St",
    "city": "Nashville",
    "postcode": "37206",
    "lat": 36.1775736,
    "lon": -86.7488159
  },
  {
    "street": "South Van Buren Street",
    "housenumber": "284",
    "city": "Nashville",
    "postcode": "47448",
    "lat": 39.2032748,
    "lon": -86.2473406
  },
  {
    "street": "S Van Buren St",
    "housenumber": "284",
    "city": "Nashville",
    "postcode": "47448",
    "lat": 39.2031595,
    "lon": -86.2473431
  },
  {
    "street": "S Van Buren St",
    "housenumber": "145A",
    "city": "Nashville",
    "postcode": "47448",
    "lat": 39.2057782,
    "lon": -86.2468371
  },
  {
    "street": "Palmer Place",
    "housenumber": "818",
    "city": "Nashville",
    "postcode": "37203",
    "lat": 36.1540449,
    "lon": -86.7811956
  },
  {
    "street": "Old Hickory Boulevard",
    "housenumber": "15555",
    "city": "Nashville",
    "postcode": "37211",
    "lat": 36.0390739,
    "lon": -86.741715
  },
  {
    "street": "Charlotte Pike",
    "housenumber": "5913",
    "city": "Nashville",
    "postcode": "37209",
    "lat": 36.1486206,
    "lon": -86.8645892
  },
  {
    "street": "Donelson Pike",
    "housenumber": "139",
    "city": "Nashville",
    "postcode": "37214",
    "lat": 36.1635622,
    "lon": -86.6636352
  },
  {
    "street": "Wimbledon Rd",
    "housenumber": "2809",
    "city": "Nashville",
    "postcode": "37215",
    "lat": 36.1134612,
    "lon": -86.8267099
  },
  {
    "street": "West Washington Street",
    "housenumber": "475",
    "city": "Nashville",
    "postcode": "27856",
    "lat": 35.9781826,
    "lon": -77.9736031
  },
  {
    "street": "West Nashville Drive",
    "housenumber": "104",
    "city": "Nashville",
    "postcode": "27856",
    "lat": 35.9785122,
    "lon": -77.9758042
  },
  {
    "street": "West Nashville Drive",
    "housenumber": "106",
    "city": "Nashville",
    "postcode": "27856",
    "lat": 35.9785017,
    "lon": -77.975954
  },
  {
    "street": "West Nashville Drive",
    "housenumber": "104",
    "city": "Nashville",
    "postcode": "27856",
    "lat": 35.9783212,
    "lon": -77.9765859
  },
  {
    "street": "West Washington Street",
    "housenumber": "414",
    "city": "Nashville",
    "postcode": "27856",
    "lat": 35.9767886,
    "lon": -77.9703394
  },
  {
    "street": "West Washington Street",
    "housenumber": "308",
    "city": "Nashville",
    "postcode": "27856",
    "lat": 35.9766041,
    "lon": -77.9700105
  },
  {
    "street": "West Washington Street",
    "housenumber": "323",
    "city": "Nashville",
    "postcode": "27856",
    "lat": 35.9764012,
    "lon": -77.9708833
  },
  {
    "street": "Eastern Avenue",
    "housenumber": "922",
    "city": "Nashville",
    "postcode": "27856",
    "lat": 35.9704947,
    "lon": -77.9495996
  },
  {
    "street": "Eastern Avenue",
    "housenumber": "1169",
    "city": "Nashville",
    "postcode": "27856",
    "lat": 35.9705295,
    "lon": -77.9386132
  },
  {
    "street": "Eastern Avenue",
    "housenumber": "1151",
    "city": "Nashville",
    "postcode": "27856",
    "lat": 35.9704643,
    "lon": -77.9375564
  },
  {
    "street": "Eastern Avenue",
    "housenumber": "1200",
    "city": "Nashville",
    "postcode": "27856",
    "lat": 35.9714455,
    "lon": -77.9354375
  },
  {
    "street": "Snook Drive",
    "housenumber": "2124",
    "city": "Nashville",
    "postcode": "37210",
    "lat": 36.1551598,
    "lon": -86.6970004
  },
  {
    "street": "Edmondson Pike #112",
    "housenumber": "5513",
    "city": "Nashville",
    "postcode": "37211",
    "lat": 36.0434954,
    "lon": -86.7445688
  },
  {
    "street": "2nd Avenue North",
    "housenumber": "#128",
    "city": "Nashville",
    "postcode": "37201",
    "lat": 36.162883,
    "lon": -86.7756332
  },
  {
    "street": "Gallatin Pike South",
    "housenumber": "1019",
    "city": "Madison",
    "postcode": "37115",
    "lat": 36.2498196,
    "lon": -86.718429
  },
  {
    "street": "Bna Drive",
    "housenumber": "404",
    "city": "Nashville",
    "postcode": "37217",
    "lat": 36.1381164,
    "lon": -86.6992763
  },
  {
    "street": "Shakespeare Avenue",
    "housenumber": "120",
    "city": "Madison",
    "postcode": "37115",
    "lat": 36.2858752,
    "lon": -86.7034958
  },
  {
    "street": "Villa Place",
    "housenumber": "1201",
    "city": "Nashville",
    "postcode": "37212",
    "lat": 36.1430275,
    "lon": -86.7922537
  },
  {
    "street": "Villa Place",
    "housenumber": "1201",
    "city": "Nashville",
    "postcode": "37212",
    "lat": 36.1428853,
    "lon": -86.7922471
  },
  {
    "street": "Villa Place",
    "housenumber": "1200",
    "city": "Nashville",
    "postcode": "37212",
    "lat": 36.1424126,
    "lon": -86.7918413
  },
  {
    "street": "Gallatin Road",
    "housenumber": "3021",
    "city": "Nashville",
    "postcode": "37216",
    "lat": 36.2046389,
    "lon": -86.7381872
  },
  {
    "street": "Houston Street",
    "housenumber": "434",
    "city": "Nashville",
    "postcode": "37210",
    "lat": 36.1429744,
    "lon": -86.7664371
  },
  {
    "street": "Murfreesboro Pike",
    "housenumber": "2284",
    "city": "Nashville",
    "postcode": "37217",
    "lat": 36.088452,
    "lon": -86.6475744
  },
  {
    "street": "Hill Avenue",
    "housenumber": "302",
    "city": "Nashville",
    "postcode": "37210",
    "lat": 36.1356437,
    "lon": -86.7291311
  },
  {
    "street": "N Gallatin Pike  Ste 236",
    "housenumber": "2021",
    "city": "Madison",
    "postcode": "37115",
    "lat": 36.3012848,
    "lon": -86.6921035
  },
  {
    "street": "Broadway",
    "housenumber": "310",
    "city": "Nashville",
    "postcode": "37203",
    "lat": 36.161473,
    "lon": -86.776622
  },
  {
    "street": "Broadway A",
    "housenumber": "300",
    "city": "Nashville",
    "postcode": "37203",
    "lat": 36.1616335,
    "lon": -86.7762433
  },
  {
    "street": "Broadway",
    "housenumber": "510",
    "city": "Nashville",
    "lat": 36.1608246,
    "lon": -86.7792151
  },
  {
    "street": "Fifth Avenue South",
    "housenumber": "928",
    "city": "Nashville",
    "postcode": "37203",
    "lat": 36.1491212,
    "lon": -86.7706476
  },
  {
    "street": "Ewing Avenue",
    "housenumber": "809",
    "city": "Nashville",
    "postcode": "37203",
    "lat": 36.1503752,
    "lon": -86.7762132
  },
  {
    "street": "8th Avenue South",
    "housenumber": "701",
    "city": "Nashville",
    "postcode": "37203",
    "lat": 36.1503817,
    "lon": -86.7794989
  },
  {
    "street": "Murphy Avenue",
    "housenumber": "2200",
    "city": "Nashville",
    "postcode": "37203",
    "lat": 36.1547647,
    "lon": -86.8064837
  },
  {
    "street": "Union Street",
    "housenumber": "333",
    "city": "Nashville",
    "postcode": "37201",
    "lat": 36.165002,
    "lon": -86.7796444
  },
  {
    "street": "4th Avenue North",
    "housenumber": "300",
    "city": "Nashville",
    "postcode": "37219",
    "lat": 36.165378,
    "lon": -86.7794765
  },
  {
    "street": "Howay 70 South",
    "housenumber": "7201",
    "city": "Nashville",
    "postcode": "37221",
    "lat": 36.0733369,
    "lon": -86.9270907
  },
  {
    "street": "Charlotte Pike",
    "housenumber": "5913",
    "city": "Nashville",
    "postcode": "37209",
    "lat": 36.1485383,
    "lon": -86.8645634
  },
  {
    "street": "Bonnafair Dr",
    "housenumber": "8137",
    "city": "hermitage",
    "postcode": "37076",
    "lat": 36.2117486,
    "lon": -86.6331269
  },
  {
    "street": "South Mill Street",
    "housenumber": "979",
    "city": "Nashville",
    "postcode": "62263",
    "lat": 38.3367075,
    "lon": -89.381183
  },
  {
    "street": "Highway 70 South",
    "housenumber": "7635",
    "city": "Nashville",
    "postcode": "37221",
    "lat": 36.0768035,
    "lon": -86.9489028
  },
  {
    "street": "Fesslers Lane",
    "housenumber": "505",
    "city": "Nashville",
    "postcode": "37210",
    "lat": 36.1460346,
    "lon": -86.744308
  },
  {
    "street": "Fesslers Lane",
    "housenumber": "521",
    "city": "Nashville",
    "postcode": "37210",
    "lat": 36.1450274,
    "lon": -86.7445617
  },
  {
    "street": "Massman Drive",
    "housenumber": "749",
    "city": "Nashville",
    "postcode": "37210",
    "lat": 36.1465405,
    "lon": -86.7138341
  },
  {
    "street": "Belmont Boulevard",
    "housenumber": "3100",
    "city": "Nashville",
    "postcode": "37212",
    "lat": 36.1185544,
    "lon": -86.7960337
  },
  {
    "street": "Stonewater Drive",
    "housenumber": "1909",
    "city": "Hermitage",
    "postcode": "37076",
    "lat": 36.1671295,
    "lon": -86.6277982
  },
  {
    "street": "Stonewater Drive",
    "housenumber": "1905",
    "city": "Hermitage",
    "postcode": "37076",
    "lat": 36.1670911,
    "lon": -86.6279569
  },
  {
    "street": "Stonewater Drive",
    "housenumber": "1901",
    "city": "Hermitage",
    "postcode": "37076",
    "lat": 36.167027,
    "lon": -86.628068
  },
  {
    "street": "Stonewater Drive",
    "housenumber": "1897",
    "city": "Hermitage",
    "postcode": "37076",
    "lat": 36.1669501,
    "lon": -86.6281633
  },
  {
    "street": "Stonewater Drive",
    "housenumber": "1893",
    "city": "Hermitage",
    "postcode": "37076",
    "lat": 36.1668562,
    "lon": -86.6282373
  },
  {
    "street": "Stonewater Drive",
    "housenumber": "1889",
    "city": "Hermitage",
    "postcode": "37076",
    "lat": 36.166728,
    "lon": -86.6282744
  },
  {
    "street": "Stonewater Drive",
    "housenumber": "1885",
    "city": "Hermitage",
    "postcode": "37076",
    "lat": 36.1665914,
    "lon": -86.6282691
  },
  {
    "street": "Stonewater Drive",
    "housenumber": "1881",
    "city": "Hermitage",
    "postcode": "37076",
    "lat": 36.1664419,
    "lon": -86.6282479
  },
  {
    "street": "Stonewater Drive",
    "housenumber": "1877",
    "city": "Hermitage",
    "postcode": "37076",
    "lat": 36.1663394,
    "lon": -86.6282003
  },
  {
    "street": "Stonewater Drive",
    "housenumber": "1873",
    "city": "Hermitage",
    "postcode": "37076",
    "lat": 36.1662582,
    "lon": -86.6281051
  },
  {
    "street": "Stonewater Drive",
    "housenumber": "1869",
    "city": "Hermitage",
    "postcode": "37076",
    "lat": 36.1661813,
    "lon": -86.6279781
  },
  {
    "street": "Stonewater Drive",
    "housenumber": "1865",
    "city": "Hermitage",
    "postcode": "37076",
    "lat": 36.1661343,
    "lon": -86.6278829
  },
  {
    "street": "Stonewater Drive",
    "housenumber": "1861",
    "city": "Hermitage",
    "postcode": "37076",
    "lat": 36.166066,
    "lon": -86.627777
  },
  {
    "street": "Stonewater Drive",
    "housenumber": "1857",
    "city": "Hermitage",
    "postcode": "37076",
    "lat": 36.1660148,
    "lon": -86.6276554
  },
  {
    "street": "Stonewater Drive",
    "housenumber": "1853",
    "city": "Hermitage",
    "postcode": "37076",
    "lat": 36.1659379,
    "lon": -86.6275496
  },
  {
    "street": "Stonewater Drive",
    "housenumber": "1845",
    "city": "Hermitage",
    "postcode": "37076",
    "lat": 36.1658012,
    "lon": -86.6272797
  },
  {
    "street": "Stonewater Drive",
    "housenumber": "1849",
    "city": "Hermitage",
    "postcode": "37076",
    "lat": 36.1658738,
    "lon": -86.6274173
  },
  {
    "street": "Cedar Cottage Drive",
    "housenumber": "3125",
    "city": "Hermitage",
    "postcode": "37076",
    "lat": 36.1664989,
    "lon": -86.6266753
  },
  {
    "street": "Cedar Cottage Drive",
    "housenumber": "3123",
    "city": "Hermitage",
    "postcode": "37076",
    "lat": 36.1664551,
    "lon": -86.626714
  },
  {
    "street": "Cedar Cottage Drive",
    "housenumber": "3121",
    "city": "Hermitage",
    "postcode": "37076",
    "lat": 36.1664165,
    "lon": -86.626752
  },
  {
    "street": "Cedar Cottage Drive",
    "housenumber": "3119",
    "city": "Hermitage",
    "postcode": "37076",
    "lat": 36.1663632,
    "lon": -86.6267943
  },
  {
    "street": "Cedar Cottage Drive",
    "housenumber": "3117",
    "city": "Hermitage",
    "postcode": "37076",
    "lat": 36.1663194,
    "lon": -86.6268333
  },
  {
    "street": "Cedar Cottage Drive",
    "housenumber": "3113",
    "city": "Hermitage",
    "postcode": "37076",
    "lat": 36.1662273,
    "lon": -86.626918
  },
  {
    "street": "Cedar Cottage Drive",
    "housenumber": "3111",
    "city": "Hermitage",
    "postcode": "37076",
    "lat": 36.1661821,
    "lon": -86.6269521
  },
  {
    "street": "Cedar Cottage Drive",
    "housenumber": "3109",
    "city": "Hermitage",
    "postcode": "37076",
    "lat": 36.1664248,
    "lon": -86.6274621
  },
  {
    "street": "Cedar Cottage Drive",
    "housenumber": "3107",
    "city": "Hermitage",
    "postcode": "37076",
    "lat": 36.1660966,
    "lon": -86.6270315
  },
  {
    "street": "Cedar Cottage Drive",
    "housenumber": "3105",
    "city": "Hermitage",
    "postcode": "37076",
    "lat": 36.1660534,
    "lon": -86.6270683
  },
  {
    "street": "Cedar Cottage Drive",
    "housenumber": "3103",
    "city": "Hermitage",
    "postcode": "37076",
    "lat": 36.1660094,
    "lon": -86.6271082
  },
  {
    "street": "Cedar Cottage Drive",
    "housenumber": "3101",
    "city": "Hermitage",
    "postcode": "37076",
    "lat": 36.1659635,
    "lon": -86.6271475
  },
  {
    "street": "Stonewater Drive",
    "housenumber": "1940",
    "city": "Hermitage",
    "postcode": "37076",
    "lat": 36.1666668,
    "lon": -86.6269548
  },
  {
    "street": "Stonewater Drive",
    "housenumber": "1936",
    "city": "Hermitage",
    "postcode": "37076",
    "lat": 36.1667231,
    "lon": -86.6270441
  },
  {
    "street": "Stonewater Drive",
    "housenumber": "1928",
    "city": "Hermitage",
    "postcode": "37076",
    "lat": 36.1668424,
    "lon": -86.6272532
  },
  {
    "street": "Stonewater Drive",
    "housenumber": "1924",
    "city": "Hermitage",
    "postcode": "37076",
    "lat": 36.1669032,
    "lon": -86.6273564
  },
  {
    "street": "Stonewater Drive",
    "housenumber": "1932",
    "city": "Hermitage",
    "postcode": "37076",
    "lat": 36.1667884,
    "lon": -86.6271528
  },
  {
    "street": "Stonewater Drive",
    "housenumber": "1856",
    "city": "Hermitage",
    "postcode": "37076",
    "lat": 36.1661018,
    "lon": -86.6274261
  },
  {
    "street": "Stonewater Drive",
    "housenumber": "1860",
    "city": "Hermitage",
    "postcode": "37076",
    "lat": 36.1661626,
    "lon": -86.6275125
  },
  {
    "street": "Stonewater Drive",
    "housenumber": "1864",
    "city": "Hermitage",
    "postcode": "37076",
    "lat": 36.1662391,
    "lon": -86.6276296
  },
  {
    "street": "Stonewater Drive",
    "housenumber": "1868",
    "city": "Hermitage",
    "postcode": "37076",
    "lat": 36.1662999,
    "lon": -86.6277272
  },
  {
    "street": "Stonewater Drive",
    "housenumber": "1872",
    "city": "Hermitage",
    "postcode": "37076",
    "lat": 36.1663629,
    "lon": -86.6278276
  },
  {
    "street": "Murfreesboro Pike",
    "housenumber": "2350",
    "city": "Nashville",
    "postcode": "37217",
    "lat": 36.0841598,
    "lon": -86.6468093
  },
  {
    "street": "Old Hickory Boulevard",
    "housenumber": "782",
    "city": "Nashville-Davidson",
    "postcode": "37027",
    "lat": 36.0418634,
    "lon": -86.7801122
  },
  {
    "street": "Charlotte Pike",
    "housenumber": "5705",
    "city": "Nashville",
    "postcode": "37209",
    "lat": 36.1484613,
    "lon": -86.8607635
  },
  {
    "street": "Gallatin Road South",
    "housenumber": "1012",
    "city": "Madison",
    "postcode": "37115-4606",
    "lat": 36.2512741,
    "lon": -86.7188318
  },
  {
    "street": "Murphy Avenue",
    "housenumber": "2221",
    "city": "Nashville",
    "postcode": "37203",
    "lat": 36.153542,
    "lon": -86.807152
  },
  {
    "street": "Murphy Avenue",
    "housenumber": "2201",
    "city": "Nashville",
    "postcode": "37203",
    "lat": 36.1542666,
    "lon": -86.8061488
  },
  {
    "street": "North Davis Street",
    "housenumber": "201",
    "city": "Nashville",
    "postcode": "31639",
    "lat": 31.2085979,
    "lon": -83.2495689
  },
  {
    "street": "Elliston Place",
    "housenumber": "2312",
    "city": "Nashville",
    "postcode": "37203",
    "lat": 36.1501156,
    "lon": -86.8062131
  },
  {
    "street": "Houston Street, Suite 263",
    "housenumber": "438",
    "city": "Nashville",
    "postcode": "37203",
    "lat": 36.143358,
    "lon": -86.7672214
  },
  {
    "street": "4th Avenue South",
    "housenumber": "1205",
    "city": "Nashville",
    "postcode": "37203",
    "lat": 36.1443005,
    "lon": -86.7668648
  },
  {
    "street": "Merritt Avenue",
    "housenumber": "610",
    "city": "Nashville",
    "postcode": "37203",
    "lat": 36.1399031,
    "lon": -86.7697252
  },
  {
    "street": "Rains Avenue",
    "housenumber": "161",
    "city": "Nashville",
    "postcode": "37203",
    "lat": 36.135409,
    "lon": -86.7658341
  },
  {
    "street": "Rains Avenue",
    "housenumber": "161",
    "city": "Nashville",
    "postcode": "37203",
    "lat": 36.1352845,
    "lon": -86.7657337
  },
  {
    "street": "4th Avenue South",
    "housenumber": "1201",
    "city": "Nashville",
    "postcode": "37210",
    "lat": 36.1445481,
    "lon": -86.7672684
  },
  {
    "street": "Hagan Street",
    "housenumber": "516",
    "city": "Nashville",
    "postcode": "37203",
    "lat": 36.1405974,
    "lon": -86.7716652
  },
  {
    "street": "Lebanon Pike",
    "housenumber": "2709",
    "city": "Donelson",
    "postcode": "37214",
    "lat": 36.1683257,
    "lon": -86.6667685
  },
  {
    "street": "Hagan Street",
    "housenumber": "507",
    "city": "Nashville",
    "postcode": "37203",
    "lat": 36.1414149,
    "lon": -86.7711214
  },
  {
    "street": "8th Avenue South",
    "housenumber": "1604",
    "city": "Nashville",
    "postcode": "37203",
    "lat": 36.1370939,
    "lon": -86.7784045
  },
  {
    "street": "Hagan Street",
    "housenumber": "507",
    "city": "Nashville",
    "postcode": "37203",
    "lat": 36.1414961,
    "lon": -86.7712767
  },
  {
    "street": "Hagan Street",
    "housenumber": "507",
    "city": "Nashville",
    "postcode": "37203",
    "lat": 36.1413994,
    "lon": -86.771285
  },
  {
    "street": "Hagan Street",
    "housenumber": "507",
    "city": "Nashville",
    "postcode": "37203",
    "lat": 36.1414806,
    "lon": -86.7711368
  },
  {
    "street": "Houston Street",
    "housenumber": "438",
    "city": "Nashville",
    "postcode": "37203",
    "lat": 36.1430491,
    "lon": -86.7674211
  },
  {
    "street": "3rd Avenue South",
    "housenumber": "1117",
    "city": "Nashville",
    "postcode": "37210",
    "lat": 36.14581,
    "lon": -86.7662694
  },
  {
    "street": "3rd Avenue South",
    "housenumber": "1114",
    "city": "Nashville",
    "postcode": "37210",
    "lat": 36.1462542,
    "lon": -86.7659271
  },
  {
    "street": "Hagan Street",
    "housenumber": "507",
    "city": "Nashville",
    "postcode": "37203",
    "lat": 36.1413913,
    "lon": -86.7712003
  },
  {
    "street": "Charlotte Avenue",
    "housenumber": "4304",
    "city": "Nashville",
    "postcode": "37209",
    "lat": 36.1524761,
    "lon": -86.839065
  },
  {
    "street": "4th Avenue South",
    "housenumber": "1911",
    "city": "Nashville",
    "postcode": "37211",
    "lat": 36.1325153,
    "lon": -86.7581068
  },
  {
    "street": "Pierside Drive",
    "housenumber": "3617-A",
    "city": "Hermitage",
    "postcode": "37076",
    "lat": 36.1763663,
    "lon": -86.6221195
  },
  {
    "street": "12th Avenue South",
    "housenumber": "2312",
    "city": "Nashville",
    "postcode": "37204",
    "lat": 36.1268847,
    "lon": -86.7889964
  },
  {
    "street": "12th Avenue South",
    "housenumber": "2317",
    "city": "Nashville",
    "postcode": "37204",
    "lat": 36.1266001,
    "lon": -86.7894052
  },
  {
    "street": "Armory Drive",
    "housenumber": "3011",
    "city": "Nashville",
    "postcode": "37204",
    "lat": 36.1030033,
    "lon": -86.7581921
  },
  {
    "street": "Armory Drive",
    "housenumber": "3001",
    "city": "Nashville",
    "postcode": "37204",
    "lat": 36.102882,
    "lon": -86.7569046
  },
  {
    "street": "Highway 70 South",
    "housenumber": "7615",
    "city": "West Nashville",
    "postcode": "37221",
    "lat": 36.0766261,
    "lon": -86.9480735
  },
  {
    "street": "South Mill Street",
    "housenumber": "631",
    "city": "Nashville",
    "postcode": "62263",
    "lat": 38.339166,
    "lon": -89.3811426
  },
  {
    "street": "Ewing Avenue",
    "housenumber": "628",
    "city": "Nashville",
    "postcode": "37203",
    "lat": 36.1519184,
    "lon": -86.7754881
  },
  {
    "street": "Charlotte Pike",
    "housenumber": "6339",
    "city": "Nashville",
    "postcode": "37209",
    "lat": 36.144449,
    "lon": -86.8719907
  },
  {
    "street": "2nd Avenue North",
    "housenumber": "152",
    "city": "Nashville",
    "lat": 36.1634196,
    "lon": -86.7759851
  },
  {
    "street": "Gallatin Pike",
    "housenumber": "2621",
    "city": "Nashville",
    "postcode": "37206",
    "lat": 36.198408,
    "lon": -86.7416763
  },
  {
    "street": "Lebanon Pike",
    "housenumber": "2324",
    "city": "Nashville",
    "postcode": "37214-2411",
    "lat": 36.1708634,
    "lon": -86.683938
  },
  {
    "street": "Eastland Avenue",
    "housenumber": "1888",
    "city": "Nashville",
    "postcode": "37206",
    "lat": 36.1824279,
    "lon": -86.7355654
  },
  {
    "street": "Galloway Drive",
    "housenumber": "300",
    "city": "Nashville-Davidson",
    "postcode": "37204",
    "lat": 36.0927754,
    "lon": -86.7923666
  },
  {
    "street": "Galloway Drive",
    "housenumber": "301",
    "city": "Nashville-Davidson",
    "postcode": "37204",
    "lat": 36.0927189,
    "lon": -86.7919647
  },
  {
    "street": "Galloway Drive",
    "housenumber": "304",
    "city": "Nashville-Davidson",
    "postcode": "37204",
    "lat": 36.0923627,
    "lon": -86.7924429
  },
  {
    "street": "Galloway Drive",
    "housenumber": "306",
    "city": "Nashville-Davidson",
    "postcode": "37204",
    "lat": 36.0921778,
    "lon": -86.7922542
  },
  {
    "street": "Galloway Drive",
    "housenumber": "305",
    "city": "Nashville-Davidson",
    "postcode": "37204",
    "lat": 36.0921859,
    "lon": -86.7920255
  },
  {
    "street": "White Bridge Pike",
    "housenumber": "21",
    "city": "Nashville",
    "postcode": "37205",
    "lat": 36.128312,
    "lon": -86.8536637
  },
  {
    "street": "Charlotte Avenue",
    "housenumber": "2201",
    "city": "Nashville",
    "postcode": "37203",
    "lat": 36.155791,
    "lon": -86.8076069
  },
  {
    "street": "Union Street",
    "housenumber": "414",
    "city": "Nashville",
    "postcode": "37219",
    "lat": 36.1649326,
    "lon": -86.780662
  },
  {
    "street": "Division Street",
    "housenumber": "1811",
    "city": "Nashville",
    "postcode": "37203",
    "lat": 36.1506406,
    "lon": -86.7951772
  },
  {
    "street": "17th Avenue South",
    "housenumber": "121",
    "city": "Nashville",
    "postcode": "37203",
    "lat": 36.1520644,
    "lon": -86.7934916
  },
  {
    "street": "19th Avenue South",
    "housenumber": "112",
    "city": "Nashville",
    "postcode": "37203",
    "lat": 36.1514926,
    "lon": -86.7966244
  },
  {
    "street": "Creekwood Drive",
    "housenumber": "3301",
    "city": "Nashville",
    "postcode": "37207",
    "lat": 36.2346478,
    "lon": -86.7680136
  },
  {
    "street": "Hillsboro Pike",
    "housenumber": "4219",
    "city": "Nashville",
    "postcode": "37215",
    "lat": 36.1003497,
    "lon": -86.8201348
  },
  {
    "street": "Starliner Drive",
    "housenumber": "532",
    "city": "Nashville",
    "postcode": "37209",
    "lat": 36.1480679,
    "lon": -86.883964
  },
  {
    "street": "4th Avenue South",
    "housenumber": "942",
    "city": "Nashville",
    "postcode": "37210",
    "lat": 36.1492323,
    "lon": -86.7692247
  },
  {
    "street": "Houston Street",
    "housenumber": "434",
    "city": "Nashville",
    "postcode": "37203",
    "lat": 36.1429755,
    "lon": -86.7669749
  },
  {
    "street": "Nolensville Pike",
    "housenumber": "2190",
    "city": "Nashville",
    "postcode": "37211",
    "lat": 36.1271392,
    "lon": -86.7528271
  },
  {
    "street": "Division Street",
    "housenumber": "1600",
    "city": "Nashville",
    "postcode": "37203",
    "lat": 36.1520952,
    "lon": -86.7916492
  },
  {
    "street": "Hogan Road",
    "housenumber": "404",
    "city": "Nashville",
    "postcode": "37220",
    "lat": 36.0624804,
    "lon": -86.7460378
  },
  {
    "street": "Murphy Avenue",
    "housenumber": "2011",
    "city": "Nashville",
    "postcode": "37203",
    "lat": 36.1551457,
    "lon": -86.8033192
  },
  {
    "street": "Arbor Trace Circle",
    "housenumber": "700",
    "city": "Nashville",
    "postcode": "37207",
    "lat": 36.2250278,
    "lon": -86.7571881
  },
  {
    "street": "Arbor Trace Circle",
    "housenumber": "707",
    "city": "Nashville",
    "postcode": "37207",
    "lat": 36.2245921,
    "lon": -86.7571648
  },
  {
    "street": "Arbor Trace Circle",
    "housenumber": "709",
    "city": "Nashville",
    "postcode": "37207",
    "lat": 36.2244513,
    "lon": -86.7571927
  },
  {
    "street": "Arbor Trace Circle",
    "housenumber": "711",
    "city": "Nashville",
    "postcode": "37207",
    "lat": 36.2243692,
    "lon": -86.757238
  },
  {
    "street": "Taylor Street",
    "housenumber": "603",
    "city": "Nashville",
    "postcode": "37208",
    "lat": 36.1775509,
    "lon": -86.7915653
  },
  {
    "street": "21st Ave S",
    "housenumber": "2106",
    "city": "Nashville",
    "postcode": "37212",
    "lat": 36.1309283,
    "lon": -86.801303
  },
  {
    "street": "Crestmoor Rd",
    "housenumber": "2405",
    "city": "Nashville",
    "postcode": "37215",
    "lat": 36.1101612,
    "lon": -86.8186056
  },
  {
    "street": "Woodmont Blvd",
    "housenumber": "102",
    "city": "Nashville",
    "postcode": "37205",
    "lat": 36.1245928,
    "lon": -86.8466761
  },
  {
    "street": "Forrest Avenue",
    "housenumber": "1010",
    "city": "Nashville",
    "postcode": "37206",
    "lat": 36.1783218,
    "lon": -86.7500503
  },
  {
    "street": "East Lake Court",
    "housenumber": "1017",
    "city": "Nashville",
    "postcode": "37214",
    "lat": 36.1411598,
    "lon": -86.6381086
  },
  {
    "street": "10th Avenue South",
    "housenumber": "2229",
    "city": "Nashville",
    "postcode": "37204",
    "lat": 36.127071,
    "lon": -86.786373
  },
  {
    "street": "Clarksville Pike",
    "housenumber": "3837",
    "city": "Nashville",
    "postcode": "37218",
    "lat": 36.2030616,
    "lon": -86.8420158
  },
  {
    "street": "21st Ave S",
    "housenumber": "2122",
    "city": "Nashville",
    "postcode": "37212",
    "lat": 36.1307255,
    "lon": -86.8013509
  },
  {
    "street": "2nd Ave N",
    "housenumber": "215",
    "city": "Nashville",
    "postcode": "37201",
    "lat": 36.1650818,
    "lon": -86.7774755
  },
  {
    "street": "Nolensville Pike",
    "housenumber": "5817",
    "city": "Nashville",
    "postcode": "37211",
    "lat": 36.0427649,
    "lon": -86.7137432
  },
  {
    "street": "Clinton Street",
    "housenumber": "1310",
    "city": "Nashville",
    "postcode": "37203",
    "lat": 36.1643062,
    "lon": -86.796522
  },
  {
    "street": "12th Avenue South",
    "housenumber": "2315",
    "city": "Nashville",
    "lat": 36.126663,
    "lon": -86.789398
  },
  {
    "street": "6th Avenue North",
    "housenumber": "1235",
    "city": "Nashville",
    "postcode": "37208",
    "lat": 36.1756419,
    "lon": -86.7900717
  },
  {
    "street": "Division Street",
    "housenumber": "1104",
    "city": "Nashville",
    "postcode": "37203",
    "lat": 36.1511045,
    "lon": -86.7833555
  },
  {
    "street": "3rd Avenue South",
    "housenumber": "116",
    "city": "Nashville",
    "postcode": "37201",
    "lat": 36.1609757,
    "lon": -86.7753785
  },
  {
    "street": "2nd Avenue South",
    "housenumber": "114",
    "city": "Nashville",
    "postcode": "37201",
    "lat": 36.1613507,
    "lon": -86.7746796
  },
  {
    "street": "Harding Pike",
    "housenumber": "4503",
    "city": "Nashville",
    "postcode": "37205",
    "lat": 36.1243505,
    "lon": -86.847763
  },
  {
    "street": "Houston Street",
    "housenumber": "508",
    "city": "Nashville",
    "postcode": "37203",
    "lat": 36.1432651,
    "lon": -86.7685194
  },
  {
    "street": "Hagan Street",
    "housenumber": "516",
    "city": "Nashville",
    "postcode": "37203",
    "lat": 36.1409481,
    "lon": -86.7720634
  },
  {
    "street": "Nolensville Pike",
    "housenumber": "2190",
    "city": "Nashville",
    "postcode": "37211",
    "lat": 36.1272205,
    "lon": -86.7529354
  },
  {
    "street": "Lyle Lane",
    "housenumber": "145",
    "city": "Nashville",
    "postcode": "37210",
    "lat": 36.1276751,
    "lon": -86.7399387
  },
  {
    "street": "Valley Brook Place",
    "housenumber": "2809",
    "city": "Nashville",
    "lat": 36.1122683,
    "lon": -86.8290685
  },
  {
    "street": "Buchanan Street",
    "housenumber": "1200",
    "city": "Nashville",
    "postcode": "37208",
    "lat": 36.1803968,
    "lon": -86.8069845
  },
  {
    "street": "Wilson Pike",
    "housenumber": "116",
    "city": "Brentwood",
    "postcode": "37027",
    "lat": 36.0359676,
    "lon": -86.7854773
  },
  {
    "street": "5th Avenue South",
    "housenumber": "410",
    "city": "Nashville",
    "postcode": "37203",
    "lat": 36.1561946,
    "lon": -86.775382
  },
  {
    "street": "Nolensville Pike",
    "housenumber": "3953",
    "city": "Nashville",
    "postcode": "37211",
    "lat": 36.084744,
    "lon": -86.7303789
  },
  {
    "street": "S Perimeter Park Dr",
    "housenumber": "301",
    "city": "Nashville",
    "postcode": "37211",
    "lat": 36.083708,
    "lon": -86.6975195
  },
  {
    "street": "2nd Avenue North",
    "housenumber": "129",
    "city": "Nashville",
    "postcode": "37201",
    "lat": 36.162695,
    "lon": -86.7758775
  },
  {
    "street": "4th Avenue South",
    "housenumber": "410",
    "city": "Nashville",
    "postcode": "37201",
    "lat": 36.1567623,
    "lon": -86.7742641
  },
  {
    "street": "West End Avenue",
    "housenumber": "3001",
    "city": "Nashville",
    "postcode": "37203",
    "lat": 36.1439319,
    "lon": -86.8136497
  },
  {
    "street": "Demonbreun Street",
    "housenumber": "1516",
    "city": "Nashville",
    "postcode": "37203",
    "lat": 36.1532032,
    "lon": -86.7896647
  },
  {
    "street": "21st Avenue South",
    "housenumber": "1805",
    "city": "Nashville",
    "postcode": "37212",
    "lat": 36.1362571,
    "lon": -86.8010919
  },
  {
    "street": "3rd Avenue South",
    "housenumber": "120",
    "city": "Nashville",
    "postcode": "37201",
    "lat": 36.1608301,
    "lon": -86.775318
  },
  {
    "street": "12th Avenue South",
    "housenumber": "2509",
    "city": "Nashville",
    "postcode": "37204",
    "lat": 36.124616,
    "lon": -86.7898446
  },
  {
    "street": "Division Street",
    "housenumber": "1921",
    "city": "Nashville",
    "postcode": "37203",
    "lat": 36.1493551,
    "lon": -86.7974678
  },
  {
    "street": "12th Avenue South",
    "housenumber": "2301",
    "city": "Nashville",
    "postcode": "37204",
    "lat": 36.1275336,
    "lon": -86.7893209
  },
  {
    "street": "Demonbreun Street",
    "housenumber": "1538",
    "city": "Nashville",
    "postcode": "37203",
    "lat": 36.152606,
    "lon": -86.7912304
  },
  {
    "street": "Church Street",
    "housenumber": "555",
    "city": "Nashville",
    "postcode": "37219",
    "lat": 36.1626267,
    "lon": -86.7809824
  },
  {
    "street": "Rep. John Lewis Way North",
    "housenumber": "235",
    "city": "Nashville",
    "postcode": "37219",
    "lat": 36.1640867,
    "lon": -86.7809662
  },
  {
    "street": "5th Avenue North",
    "housenumber": "221",
    "city": "Nashville",
    "lat": 36.1638554,
    "lon": -86.7808248
  },
  {
    "street": "8th Avenue North",
    "housenumber": "1027",
    "city": "Nashville",
    "postcode": "37208",
    "lat": 36.1721953,
    "lon": -86.791166
  },
  {
    "street": "Hillsboro Pike",
    "housenumber": "4040",
    "city": "Nashville",
    "postcode": "37215",
    "lat": 36.1030692,
    "lon": -86.8160843
  },
  {
    "street": "Thompson Lane",
    "housenumber": "602",
    "city": "Nashville",
    "postcode": "37204",
    "lat": 36.1113103,
    "lon": -86.7528574
  },
  {
    "street": "Charlotte Pike",
    "housenumber": "6500",
    "city": "Nashville",
    "postcode": "37209",
    "lat": 36.1402251,
    "lon": -86.8797029
  },
  {
    "street": "Taylor Street",
    "housenumber": "700",
    "city": "Nashville",
    "postcode": "37208",
    "lat": 36.1774762,
    "lon": -86.7928317
  },
  {
    "street": "Caruthers Avenue",
    "housenumber": "1110",
    "city": "Nashville",
    "postcode": "37204",
    "lat": 36.1259507,
    "lon": -86.7887484
  },
  {
    "street": "Union Street",
    "housenumber": "511",
    "city": "Nashville",
    "postcode": "37219",
    "lat": 36.1639354,
    "lon": -86.7817979
  },
  {
    "street": "Dickerson Road",
    "housenumber": "3196",
    "city": "Nashville",
    "postcode": "37207",
    "lat": 36.2340288,
    "lon": -86.7589852
  },
  {
    "street": "Gallatin Pike",
    "housenumber": "3407",
    "city": "Nashville",
    "postcode": "37216",
    "lat": 36.2106607,
    "lon": -86.7339067
  },
  {
    "street": "Elm Hill Pike",
    "housenumber": "3324",
    "city": "Nashville",
    "postcode": "37214",
    "lat": 36.1425258,
    "lon": -86.6353077
  },
  {
    "street": "Terminal Drive",
    "housenumber": "One",
    "city": "Nashville",
    "postcode": "37217",
    "lat": 36.1322798,
    "lon": -86.6699798
  },
  {
    "street": "Murfreesboro Pike",
    "housenumber": "2940",
    "city": "Antioch",
    "postcode": "37013",
    "lat": 36.0630288,
    "lon": -86.6255251
  },
  {
    "street": "Todd Preis Drive",
    "housenumber": "853",
    "city": "Nashville",
    "postcode": "37221",
    "lat": 36.0696337,
    "lon": -86.9449301
  },
  {
    "street": "Bell Forge Lane East",
    "housenumber": "5424",
    "city": "Antioch",
    "postcode": "37013-9998",
    "lat": 36.0484489,
    "lon": -86.6451283
  },
  {
    "street": "Bell Road",
    "housenumber": "915",
    "city": "Antioch",
    "postcode": "37013",
    "lat": 36.0498318,
    "lon": -86.6515044
  },
  {
    "street": "Murfreesboro Pike",
    "housenumber": "3541",
    "city": "Antioch",
    "postcode": "37013",
    "lat": 36.0517138,
    "lon": -86.6166079
  },
  {
    "street": "Commerce Street",
    "housenumber": "401",
    "city": "Nashville",
    "lat": 36.1619622,
    "lon": -86.7786969
  },
  {
    "street": "21st Avenue S",
    "housenumber": "2416",
    "city": "Nashville",
    "postcode": "37212",
    "lat": 36.1264929,
    "lon": -86.8038887
  },
  {
    "street": "Dea",
    "housenumber": "315",
    "city": "Nashville",
    "postcode": "37238",
    "lat": 36.1657508,
    "lon": -86.7799878
  },
  {
    "street": "5th Avenue North",
    "housenumber": "213",
    "city": "Nashville",
    "postcode": "37219",
    "lat": 36.1634561,
    "lon": -86.7807028
  },
  {
    "street": "Rutledge Street",
    "housenumber": "37",
    "city": "Nashville",
    "lat": 36.1553925,
    "lon": -86.7698842
  },
  {
    "street": "Commerce Street",
    "housenumber": "401",
    "city": "Nashville",
    "postcode": "37203",
    "lat": 36.1618043,
    "lon": -86.7790075
  },
  {
    "street": "16th Avenue South",
    "housenumber": "1208",
    "city": "Nashville",
    "postcode": "37212",
    "lat": 36.1425751,
    "lon": -86.7929068
  },
  {
    "street": "16th Avenue South",
    "housenumber": "1217",
    "city": "Nashville",
    "postcode": "37212",
    "lat": 36.1421484,
    "lon": -86.7937705
  },
  {
    "street": "16th Avenue South",
    "housenumber": "1303",
    "city": "Nashville",
    "postcode": "37212",
    "lat": 36.141112,
    "lon": -86.7939422
  },
  {
    "street": "16th Avenue South",
    "housenumber": "1303",
    "city": "Nashville",
    "postcode": "37212",
    "lat": 36.1411055,
    "lon": -86.7938429
  },
  {
    "street": "4th Avenue North",
    "housenumber": "162",
    "city": "Nashville",
    "postcode": "37219",
    "lat": 36.1633893,
    "lon": -86.7786117
  },
  {
    "street": "Old Lebanon Road",
    "housenumber": "2710",
    "city": "Donelson",
    "postcode": "37214",
    "lat": 36.1706406,
    "lon": -86.667587
  },
  {
    "street": "Cleghorn Avenue",
    "housenumber": "3801",
    "city": "Nashville",
    "postcode": "37215",
    "lat": 36.1095037,
    "lon": -86.8185488
  },
  {
    "street": "Lindell Avenue",
    "housenumber": "2030",
    "city": "Nashville",
    "postcode": "37203",
    "lat": 36.1329319,
    "lon": -86.7733682
  },
  {
    "street": "Murfreesboro Road",
    "housenumber": "353",
    "city": "Nashville",
    "postcode": "37210",
    "lat": 36.1450106,
    "lon": -86.7521022
  },
  {
    "street": "Nolensville Pike",
    "housenumber": "5765",
    "city": "Nashville",
    "postcode": "37211",
    "lat": 36.046891,
    "lon": -86.7150167
  },
  {
    "street": "West End Avenue",
    "housenumber": "2034",
    "city": "Nashville",
    "postcode": "37203",
    "lat": 36.1507625,
    "lon": -86.8012681
  },
  {
    "street": "Arbor Crest Boulevard",
    "housenumber": "1420",
    "city": "Antioch",
    "postcode": "37013",
    "lat": 36.0386282,
    "lon": -86.669989
  },
  {
    "street": "Martin Street",
    "housenumber": "1252",
    "city": "Nashville",
    "postcode": "37203",
    "lat": 36.1403555,
    "lon": -86.7694051
  },
  {
    "street": "Martin Street",
    "housenumber": "1254",
    "city": "Nashville",
    "postcode": "37203",
    "lat": 36.1402707,
    "lon": -86.7694179
  },
  {
    "street": "Martin Street",
    "housenumber": "1264",
    "city": "Nashville",
    "postcode": "37203",
    "lat": 36.1398938,
    "lon": -86.7694822
  },
  {
    "street": "Humphreys Street",
    "housenumber": "491",
    "city": "Nashville",
    "postcode": "37203",
    "lat": 36.1419741,
    "lon": -86.7713373
  },
  {
    "street": "Houston Street",
    "housenumber": "438",
    "city": "Nashville",
    "postcode": "37203",
    "lat": 36.1435535,
    "lon": -86.767387
  },
  {
    "street": "Murfreesboro Pike",
    "housenumber": "1053",
    "city": "Nashville",
    "postcode": "37217",
    "lat": 36.1270572,
    "lon": -86.7130454
  },
  {
    "street": "Lebanon Pike",
    "housenumber": "2428",
    "city": "Nashville",
    "postcode": "37214",
    "lat": 36.1696659,
    "lon": -86.6804878
  },
  {
    "street": "Houston Street",
    "housenumber": "407",
    "city": "Nashville",
    "postcode": "37203",
    "lat": 36.1422161,
    "lon": -86.7652246
  },
  {
    "street": "Lebanon Pike",
    "housenumber": "2730",
    "city": "Nashville",
    "postcode": "37214-2504",
    "lat": 36.1687086,
    "lon": -86.665755
  },
  {
    "street": "Lebanon PIke",
    "housenumber": "2745",
    "city": "Nashville",
    "postcode": "37214",
    "lat": 36.1674473,
    "lon": -86.6641081
  },
  {
    "street": "Humphreys Street",
    "housenumber": "407",
    "city": "Nashville",
    "postcode": "37203",
    "lat": 36.1413677,
    "lon": -86.7651444
  },
  {
    "street": "Chestnut Street",
    "housenumber": "467",
    "city": "Nashville",
    "postcode": "37203",
    "lat": 36.1427256,
    "lon": -86.7707089
  },
  {
    "street": "Martin Street",
    "housenumber": "1601",
    "city": "Nashville",
    "postcode": "37203",
    "lat": 36.1374765,
    "lon": -86.7703238
  },
  {
    "street": "Lindell Avenue",
    "housenumber": "2028",
    "city": "Nashville",
    "postcode": "37203",
    "lat": 36.1311195,
    "lon": -86.7731609
  },
  {
    "street": "Clarksville Pike",
    "housenumber": "5538",
    "city": "Joelton",
    "postcode": "37080",
    "lat": 36.2813471,
    "lon": -86.8756504
  },
  {
    "street": "2nd Avenue North",
    "housenumber": "1200",
    "city": "Nashville",
    "postcode": "37208",
    "lat": 36.176945,
    "lon": -86.7844642
  },
  {
    "street": "Gallatin Avenue",
    "housenumber": "615",
    "city": "Nashville",
    "postcode": "37206",
    "lat": 36.1833398,
    "lon": -86.7474131
  },
  {
    "street": "Houston Street",
    "housenumber": "509",
    "city": "Nashville",
    "postcode": "37203",
    "lat": 36.1427063,
    "lon": -86.7683431
  },
  {
    "street": "Union Street",
    "housenumber": "511",
    "city": "Nashville",
    "postcode": "37219",
    "lat": 36.1640218,
    "lon": -86.7817934
  },
  {
    "street": "Union Street",
    "housenumber": "511",
    "city": "Nashville",
    "postcode": "37219",
    "lat": 36.1640348,
    "lon": -86.781898
  },
  {
    "street": "Union Street",
    "housenumber": "511",
    "city": "Nashville",
    "postcode": "37219",
    "lat": 36.1638767,
    "lon": -86.7818148
  },
  {
    "street": "Hart Street",
    "housenumber": "311",
    "city": "Nashville",
    "postcode": "37210",
    "lat": 36.1422553,
    "lon": -86.7641211
  },
  {
    "street": "Granny White Pike",
    "housenumber": "3901",
    "city": "Nashville",
    "postcode": "37204",
    "lat": 36.1053929,
    "lon": -86.798243
  },
  {
    "street": "Merritt Avenue",
    "housenumber": "510",
    "city": "Nashville",
    "postcode": "37203",
    "lat": 36.1404218,
    "lon": -86.7677937
  },
  {
    "street": "Merritt Avenue",
    "housenumber": "510",
    "city": "Nashville",
    "postcode": "37203",
    "lat": 36.1398932,
    "lon": -86.7678635
  },
  {
    "street": "Granny White Pike",
    "housenumber": "4000",
    "city": "Nashville",
    "postcode": "37204",
    "lat": 36.105428,
    "lon": -86.7954903
  },
  {
    "street": "Gallatin Avenue",
    "housenumber": "1305",
    "city": "Nashville",
    "lat": 36.1928354,
    "lon": -86.7439239
  },
  {
    "street": "Gallatin Avenue",
    "housenumber": "1302",
    "city": "Nashville",
    "postcode": "37206",
    "lat": 36.1931382,
    "lon": -86.7445575
  },
  {
    "street": "Gallatin Avenue",
    "housenumber": "1401",
    "city": "Nashville",
    "postcode": "37206",
    "lat": 36.1938207,
    "lon": -86.7434924
  },
  {
    "street": "McKennie Avenue",
    "housenumber": "1101",
    "city": "Nashville",
    "postcode": "37206",
    "lat": 36.1920814,
    "lon": -86.7444782
  },
  {
    "street": "Chapel Avenue",
    "housenumber": "1203",
    "city": "Nashville",
    "postcode": "37206",
    "lat": 36.1901236,
    "lon": -86.7385777
  },
  {
    "street": "McKennie Avenue",
    "housenumber": "1515",
    "city": "Nashville",
    "postcode": "37206",
    "lat": 36.1911018,
    "lon": -86.7377564
  },
  {
    "street": "Greenwood Avenue",
    "housenumber": "1928",
    "city": "Nashville",
    "postcode": "37206",
    "lat": 36.18847,
    "lon": -86.7349596
  },
  {
    "street": "Greenwood Avenue",
    "housenumber": "2000",
    "city": "Nashville",
    "postcode": "37206",
    "lat": 36.1884331,
    "lon": -86.7329025
  },
  {
    "street": "Highway 70 South",
    "housenumber": "7079",
    "city": "Nashville",
    "postcode": "37221",
    "lat": 36.0733413,
    "lon": -86.9189775
  },
  {
    "street": "Highway 70 South",
    "housenumber": "7077",
    "city": "Nashville",
    "postcode": "37221",
    "lat": 36.073292,
    "lon": -86.9189079
  },
  {
    "street": "Highway 70 S",
    "housenumber": "7083",
    "city": "Nashville",
    "postcode": "37221",
    "lat": 36.073531,
    "lon": -86.9191038
  },
  {
    "street": "Printers Alley",
    "housenumber": "222",
    "city": "Nashville",
    "postcode": "37201",
    "lat": 36.1645871,
    "lon": -86.7788397
  },
  {
    "street": "5th Avenue North",
    "housenumber": "244",
    "city": "Nashville",
    "postcode": "37219",
    "lat": 36.1644308,
    "lon": -86.7808799
  },
  {
    "street": "5th Avenue North",
    "housenumber": "246",
    "city": "Nashville",
    "postcode": "37219",
    "lat": 36.1644893,
    "lon": -86.7809246
  },
  {
    "street": "Old Hickory Boulevard",
    "housenumber": "2828",
    "city": "Nashville",
    "postcode": "37221",
    "lat": 36.0632088,
    "lon": -86.9165812
  },
  {
    "street": "21st Avenue South",
    "housenumber": "400",
    "city": "Nashville",
    "postcode": "37203",
    "lat": 36.1472748,
    "lon": -86.7988535
  },
  {
    "street": "Murfreesboro Road",
    "housenumber": "524",
    "city": "Nashville",
    "postcode": "37210-3510",
    "lat": 36.1429471,
    "lon": -86.7437034
  },
  {
    "street": "8th Avenue South",
    "housenumber": "2011",
    "city": "Nashville",
    "postcode": "37204-2201",
    "lat": 36.1333695,
    "lon": -86.7795787
  },
  {
    "street": "Edmonson Pike",
    "housenumber": "5709",
    "city": "Nashville",
    "postcode": "37211",
    "lat": 36.0389586,
    "lon": -86.7439684
  },
  {
    "street": "Donelson Pike",
    "housenumber": "529",
    "city": "Nashville",
    "postcode": "37214",
    "lat": 36.1473862,
    "lon": -86.6660173
  },
  {
    "street": "Donelson Pike",
    "housenumber": "529",
    "city": "Nashville",
    "postcode": "37214",
    "lat": 36.1473733,
    "lon": -86.6659587
  },
  {
    "street": "Donelson Pike",
    "housenumber": "450",
    "city": "Nashville",
    "postcode": "37214",
    "lat": 36.151083,
    "lon": -86.6670288
  },
  {
    "street": "Donelson Pike",
    "housenumber": "414",
    "city": "Donelson",
    "postcode": "37214",
    "lat": 36.1547414,
    "lon": -86.6658544
  },
  {
    "street": "Old Hickory Boulevard",
    "housenumber": "601",
    "city": "Nashville",
    "postcode": "37209",
    "lat": 36.1066421,
    "lon": -86.9227974
  },
  {
    "street": "Highway 70 South",
    "housenumber": "7107",
    "city": "Nashville",
    "postcode": "37221-2901",
    "lat": 36.0739077,
    "lon": -86.9213439
  },
  {
    "street": "Highway 70 South",
    "housenumber": "7107",
    "city": "Nashville",
    "postcode": "37221-2901",
    "lat": 36.0737689,
    "lon": -86.9212929
  },
  {
    "street": "Harding Pike",
    "housenumber": "4300",
    "city": "Nashville",
    "postcode": "37205",
    "lat": 36.1276175,
    "lon": -86.8445345
  },
  {
    "street": "Harding Pike",
    "housenumber": "4300",
    "city": "Nashville",
    "postcode": "37205",
    "lat": 36.1275807,
    "lon": -86.8444862
  },
  {
    "street": "Hillsboro Pike",
    "housenumber": "3909",
    "city": "Nashville",
    "postcode": "37215",
    "lat": 36.1054457,
    "lon": -86.8155782
  },
  {
    "street": "Brandywine Village Court",
    "housenumber": "601",
    "city": "Old Hickory",
    "postcode": "37138",
    "lat": 36.2340381,
    "lon": -86.6238505
  },
  {
    "street": "3rd Avenue South",
    "housenumber": "1106",
    "city": "Nashville",
    "postcode": "37210",
    "lat": 36.1465593,
    "lon": -86.76633
  },
  {
    "street": "East Trinity Lane",
    "housenumber": "909",
    "city": "Nashville",
    "postcode": "37207",
    "lat": 36.2047759,
    "lon": -86.7493162
  },
  {
    "street": "West End Avenue",
    "housenumber": "1906",
    "city": "Nashville",
    "postcode": "37203",
    "lat": 36.1522262,
    "lon": -86.7981695
  },
  {
    "street": "3rd Avenue South",
    "housenumber": "825",
    "city": "Nashville",
    "postcode": "37210",
    "lat": 36.1518129,
    "lon": -86.7701389
  },
  {
    "street": "Seven Springs Way",
    "housenumber": "302",
    "city": "Brentwood",
    "postcode": "37027",
    "lat": 36.0427025,
    "lon": -86.7667215
  },
  {
    "street": "Herron Drive",
    "housenumber": "374",
    "city": "Nashville",
    "postcode": "37210",
    "lat": 36.1358532,
    "lon": -86.7572575
  },
  {
    "street": "Herron Drive",
    "housenumber": "372",
    "city": "Nashville",
    "postcode": "37210",
    "lat": 36.1360293,
    "lon": -86.7567184
  },
  {
    "street": "Hart Street",
    "housenumber": "307",
    "city": "Nashville",
    "postcode": "37210",
    "lat": 36.1422392,
    "lon": -86.763975
  },
  {
    "street": "Hart Street",
    "housenumber": "325",
    "city": "Nashville",
    "postcode": "37210",
    "lat": 36.1422957,
    "lon": -86.7644519
  },
  {
    "street": "5th Avenue South",
    "housenumber": "410",
    "city": "Nashville",
    "postcode": "37203",
    "lat": 36.156321,
    "lon": -86.775456
  },
  {
    "street": "5th Avenue South",
    "housenumber": "410",
    "city": "Nashville",
    "postcode": "37203",
    "lat": 36.1560809,
    "lon": -86.775318
  },
  {
    "street": "Redmon Street",
    "housenumber": "3630",
    "city": "Nashville",
    "postcode": "37209",
    "lat": 36.1448854,
    "lon": -86.8270904
  },
  {
    "street": "Redmon Street",
    "housenumber": "3622",
    "city": "Nashville",
    "postcode": "37209",
    "lat": 36.1450069,
    "lon": -86.8259682
  },
  {
    "street": "Elliston Place",
    "housenumber": "2314",
    "city": "Nashville",
    "postcode": "37203",
    "lat": 36.1495617,
    "lon": -86.8062912
  },
  {
    "street": "Elliston Place",
    "housenumber": "2310",
    "city": "Nashville",
    "postcode": "37203",
    "lat": 36.149778,
    "lon": -86.8060444
  },
  {
    "street": "Elliston Place",
    "housenumber": "2300",
    "city": "Nashville",
    "postcode": "37203",
    "lat": 36.1501057,
    "lon": -86.8057455
  },
  {
    "street": "Oman Street",
    "housenumber": "511",
    "city": "Nashville",
    "postcode": "37203",
    "lat": 36.1471054,
    "lon": -86.8206514
  },
  {
    "street": "West End Avenue",
    "housenumber": "2318",
    "city": "Nashville",
    "postcode": "37203",
    "lat": 36.1483204,
    "lon": -86.8060501
  },
  {
    "street": "West End Avenue",
    "housenumber": "2312",
    "city": "Nashville",
    "postcode": "37203",
    "lat": 36.1486294,
    "lon": -86.8057709
  },
  {
    "street": "Elliston Place",
    "housenumber": "2323",
    "city": "Nashville",
    "postcode": "37203",
    "lat": 36.1489322,
    "lon": -86.8062214
  },
  {
    "street": "Hagan Street",
    "housenumber": "517",
    "city": "Nashville",
    "postcode": "37203",
    "lat": 36.1410758,
    "lon": -86.7716274
  },